"Codice Istat","Comune","Regione","Provincia","Sigla Auto","CAP","Latitudine","Longitudine","Altitudine","Superfice","ITA-Femmine","ITA-Maschi","ITA-Totale","STR-Femmine","STR-Maschi","STR-Totale","POP-Femmine","POP-Maschi","POP-Totale","% Stranieri"
"1001","Agliè","PIEMONTE","Torino","TO","10011","45.3673","7.76752","315","13.3","1270","1173","2443","108","93","201","1378","1266","2644","7.6"
"1002","Airasca","PIEMONTE","Torino","TO","10060","44.9171","7.48935","257","15.7","1747","1808","3555","142","122","264","1889","1930","3819","6.9"
"1003","Ala di Stura","PIEMONTE","Torino","TO","10070","45.3152","7.30429","1.080","46.1","213","243","456","5","1","6","218","244","462","1.3"
"1004","Albiano d'Ivrea","PIEMONTE","Torino","TO","10010","45.4328","7.94763","230","11.7","844","831","1675","64","52","116","908","883","1791","6.5"
"1005","Alice Superiore","PIEMONTE","Torino","TO","10010","45.4598","7.77817","610","7.0","334","353","687","11","3","14","345","356","701","2.0"
"1006","Almese","PIEMONTE","Torino","TO","10040","45.1175","7.39499","364","17.9","3074","2936","6010","163","130","293","3237","3066","6303","4.6"
"1007","Alpette","PIEMONTE","Torino","TO","10080","45.4106","7.5803","957","5.7","137","132","269","4","4","8","141","136","277","2.9"
"1008","Alpignano","PIEMONTE","Torino","TO","10091","45.0929","7.5237","314","12.0","8313","7970","16283","350","260","610","8663","8230","16893","3.6"
"1009","Andezeno","PIEMONTE","Torino","TO","10020","45.0367","7.86739","306","7.5","909","914","1823","81","62","143","990","976","1966","7.3"
"1010","Andrate","PIEMONTE","Torino","TO","10010","45.5489","7.88296","836","9.3","222","255","477","19","16","35","241","271","512","6.8"
"1011","Angrogna","PIEMONTE","Torino","TO","10060","44.8436","7.22452","782","38.7","415","443","858","9","3","12","424","446","870","1.4"
"1012","Arignano","PIEMONTE","Torino","TO","10020","45.0378","7.9017","321","8.2","478","518","996","23","20","43","501","538","1039","4.1"
"1013","Avigliana","PIEMONTE","Torino","TO","10051","45.0763","7.40169","383","23.3","5880","5670","11550","341","238","579","6221","5908","12129","4.8"
"1014","Azeglio","PIEMONTE","Torino","TO","10010","45.4226","7.99541","260","9.9","642","610","1252","51","44","95","693","654","1347","7.1"
"1015","Bairo","PIEMONTE","Torino","TO","10010","45.3858","7.75839","365","7.2","408","389","797","11","8","19","419","397","816","2.3"
"1016","Balangero","PIEMONTE","Torino","TO","10070","45.2725","7.52039","440","12.9","1554","1470","3024","84","53","137","1638","1523","3161","4.3"
"1017","Baldissero Canavese","PIEMONTE","Torino","TO","10080","45.4097","7.74396","392","4.4","275","235","510","16","8","24","291","243","534","4.5"
"1018","Baldissero Torinese","PIEMONTE","Torino","TO","10020","45.0666","7.81306","421","15.5","1813","1843","3656","83","44","127","1896","1887","3783","3.4"
"1019","Balme","PIEMONTE","Torino","TO","10070","45.3017","7.21937","1.432","61.5","45","49","94","1","0","1","46","49","95","1.1"
"1020","Banchette","PIEMONTE","Torino","TO","10010","45.4596","7.85549","266","2.2","1515","1357","2872","227","181","408","1742","1538","3280","12.4"
"1021","Barbania","PIEMONTE","Torino","TO","10070","45.2913","7.63121","362","12.8","786","769","1555","36","32","68","822","801","1623","4.2"
"1022","Bardonecchia","PIEMONTE","Torino","TO","10052","45.0743","6.69605","1.312","132.3","1467","1435","2902","175","135","310","1642","1570","3212","9.7"
"1023","Barone Canavese","PIEMONTE","Torino","TO","10010","45.3261","7.87178","325","4.0","271","289","560","20","19","39","291","308","599","6.5"
"1024","Beinasco","PIEMONTE","Torino","TO","10092","45.0216","7.58215","265","6.8","8949","8413","17362","451","291","742","9400","8704","18104","4.1"
"1025","Bibiana","PIEMONTE","Torino","TO","10060","44.7987","7.28837","406","18.6","1559","1518","3077","164","135","299","1723","1653","3376","8.9"
"1026","Bobbio Pellice","PIEMONTE","Torino","TO","10060","44.8079","7.11933","732","93.9","277","271","548","10","8","18","287","279","566","3.2"
"1027","Bollengo","PIEMONTE","Torino","TO","10012","45.4713","7.93617","255","14.2","993","1028","2021","59","32","91","1052","1060","2112","4.3"
"1028","Borgaro Torinese","PIEMONTE","Torino","TO","10071","45.1518","7.65485","254","14.4","6693","6498","13191","250","179","429","6943","6677","13620","3.1"
"1029","Borgiallo","PIEMONTE","Torino","TO","10080","45.4162","7.66749","540","7.0","256","248","504","25","21","46","281","269","550","8.4"
"1030","Borgofranco d'Ivrea","PIEMONTE","Torino","TO","10013","45.5114","7.85614","253","13.3","1777","1648","3425","120","98","218","1897","1746","3643","6.0"
"1031","Borgomasino","PIEMONTE","Torino","TO","10031","45.3619","7.98897","260","12.5","410","359","769","36","30","66","446","389","835","7.9"
"1032","Borgone Susa","PIEMONTE","Torino","TO","10050","45.1228","7.24132","394","5.0","1073","1066","2139","90","91","181","1163","1157","2320","7.8"
"1033","Bosconero","PIEMONTE","Torino","TO","10080","45.268","7.76503","240","11.1","1461","1432","2893","95","68","163","1556","1500","3056","5.3"
"1034","Brandizzo","PIEMONTE","Torino","TO","10032","45.1768","7.83652","187","6.4","4060","3917","7977","229","196","425","4289","4113","8402","5.1"
"1035","Bricherasio","PIEMONTE","Torino","TO","10060","44.825","7.30352","400","22.6","2175","2136","4311","112","94","206","2287","2230","4517","4.6"
"1036","Brosso","PIEMONTE","Torino","TO","10080","45.4924","7.80282","797","11.3","237","210","447","9","4","13","246","214","460","2.8"
"1037","Brozolo","PIEMONTE","Torino","TO","10020","45.1177","8.06007","360","8.9","213","230","443","16","12","28","229","242","471","5.9"
"1038","Bruino","PIEMONTE","Torino","TO","10090","45.0208","7.46814","320","5.6","4117","4120","8237","141","101","242","4258","4221","8479","2.9"
"1039","Brusasco","PIEMONTE","Torino","TO","10020","45.1562","8.05995","170","14.4","832","779","1611","62","53","115","894","832","1726","6.7"
"1040","Bruzolo","PIEMONTE","Torino","TO","10050","45.1432","7.19072","455","12.4","751","717","1468","40","37","77","791","754","1545","5.0"
"1041","Buriasco","PIEMONTE","Torino","TO","10060","44.8728","7.41465","301","14.7","680","674","1354","24","27","51","704","701","1405","3.6"
"1042","Burolo","PIEMONTE","Torino","TO","10010","45.4833","7.93245","276","5.5","628","560","1188","27","13","40","655","573","1228","3.3"
"1043","Busano","PIEMONTE","Torino","TO","10080","45.3288","7.65674","317","5.1","749","741","1490","48","50","98","797","791","1588","6.2"
"1044","Bussoleno","PIEMONTE","Torino","TO","10053","45.1388","7.15028","440","37.4","3070","2761","5831","274","258","532","3344","3019","6363","8.4"
"1045","Buttigliera Alta","PIEMONTE","Torino","TO","10090","45.0664","7.43661","414","8.3","3117","3053","6170","118","98","216","3235","3151","6386","3.4"
"1046","Cafasse","PIEMONTE","Torino","TO","10070","45.2451","7.51806","409","10.0","1686","1652","3338","103","70","173","1789","1722","3511","4.9"
"1047","Caluso","PIEMONTE","Torino","TO","10014","45.3022","7.88967","303","39.5","3665","3324","6989","263","231","494","3928","3555","7483","6.6"
"1048","Cambiano","PIEMONTE","Torino","TO","10020","44.969","7.77578","253","14.2","3070","2955","6025","110","80","190","3180","3035","6215","3.1"
"1049","Campiglione-Fenile","PIEMONTE","Torino","TO","10060","44.8016","7.32544","365","11.1","669","654","1323","31","28","59","700","682","1382","4.3"
"1050","Candia Canavese","PIEMONTE","Torino","TO","10010","45.3281","7.88725","285","9.2","611","574","1185","56","45","101","667","619","1286","7.9"
"1051","Candiolo","PIEMONTE","Torino","TO","10060","44.9592","7.60054","237","11.9","2758","2670","5428","87","51","138","2845","2721","5566","2.5"
"1052","Canischio","PIEMONTE","Torino","TO","10080","45.3769","7.59205","659","11.7","138","149","287","5","2","7","143","151","294","2.4"
"1053","Cantalupa","PIEMONTE","Torino","TO","10060","44.9379","7.33666","459","11.1","1249","1177","2426","50","51","101","1299","1228","2527","4.0"
"1054","Cantoira","PIEMONTE","Torino","TO","10070","45.337","7.38699","750","23.1","270","281","551","1","2","3","271","283","554","0.5"
"1055","Caprie","PIEMONTE","Torino","TO","10040","45.1186","7.33166","374","16.4","1019","1033","2052","41","23","64","1060","1056","2116","3.0"
"1056","Caravino","PIEMONTE","Torino","TO","10010","45.3987","7.96156","257","11.5","471","472","943","33","19","52","504","491","995","5.2"
"1057","Carema","PIEMONTE","Torino","TO","10010","45.5826","7.80801","349","10.5","379","332","711","32","29","61","411","361","772","7.9"
"1058","Carignano","PIEMONTE","Torino","TO","10041","44.9059","7.67745","235","50.2","4355","4138","8493","362","301","663","4717","4439","9156","7.2"
"1059","Carmagnola","PIEMONTE","Torino","TO","10022","44.8459","7.71744","240","96.4","13157","12762","25919","1366","1278","2644","14523","14040","28563","9.3"
"1060","Casalborgone","PIEMONTE","Torino","TO","10020","45.1305","7.9411","205","20.2","879","849","1728","48","44","92","927","893","1820","5.1"
"1061","Cascinette d'Ivrea","PIEMONTE","Torino","TO","10010","45.481","7.90663","239","2.2","742","689","1431","29","31","60","771","720","1491","4.0"
"1062","Caselette","PIEMONTE","Torino","TO","10040","45.1078","7.48232","405","14.2","1378","1428","2806","74","51","125","1452","1479","2931","4.3"
"1063","Caselle Torinese","PIEMONTE","Torino","TO","10072","45.1746","7.64882","277","28.7","8811","8714","17525","441","333","774","9252","9047","18299","4.2"
"1064","Castagneto Po","PIEMONTE","Torino","TO","10090","45.1611","7.89248","473","11.6","842","851","1693","56","42","98","898","893","1791","5.5"
"1065","Castagnole Piemonte","PIEMONTE","Torino","TO","10060","45.2496","7.43891","244","17.3","1048","996","2044","84","65","149","1132","1061","2193","6.8"
"1066","Castellamonte","PIEMONTE","Torino","TO","10081","45.3755","7.71352","343","38.5","4707","4353","9060","463","394","857","5170","4747","9917","8.6"
"1067","Castelnuovo Nigra","PIEMONTE","Torino","TO","10080","45.4379","7.69382","828","28.6","181","216","397","14","6","20","195","222","417","4.8"
"1068","Castiglione Torinese","PIEMONTE","Torino","TO","10090","45.1178","7.8041","216","14.2","3121","3052","6173","117","73","190","3238","3125","6363","3.0"
"1069","Cavagnolo","PIEMONTE","Torino","TO","10020","45.1556","8.04884","177","12.4","1116","1099","2215","59","35","94","1175","1134","2309","4.1"
"1070","Cavour","PIEMONTE","Torino","TO","10061","44.7867","7.37358","300","49.1","2642","2600","5242","168","158","326","2810","2758","5568","5.9"
"1071","Cercenasco","PIEMONTE","Torino","TO","10060","44.8603","7.50358","256","13.1","874","877","1751","55","51","106","929","928","1857","5.7"
"1072","Ceres","PIEMONTE","Torino","TO","10070","45.3136","7.38868","704","27.9","491","499","990","40","26","66","531","525","1056","6.3"
"1073","Ceresole Reale","PIEMONTE","Torino","TO","10080","45.4322","7.23431","1.620","99.6","66","91","157","2","0","2","68","91","159","1.3"
"1074","Cesana Torinese","PIEMONTE","Torino","TO","10054","44.953","6.79369","1.354","121.3","422","479","901","59","47","106","481","526","1007","10.5"
"1075","Chialamberto","PIEMONTE","Torino","TO","10070","45.3619","7.34931","851","35.2","168","174","342","14","8","22","182","182","364","6.0"
"1076","Chianocco","PIEMONTE","Torino","TO","10050","45.1455","7.17378","550","18.6","823","807","1630","40","30","70","863","837","1700","4.1"
"1077","Chiaverano","PIEMONTE","Torino","TO","10010","45.4974","7.90063","329","12.0","1048","972","2020","44","42","86","1092","1014","2106","4.1"
"1078","Chieri","PIEMONTE","Torino","TO","10023","45.0089","7.82756","283","54.3","17067","15774","32841","1694","1427","3121","18761","17201","35962","8.7"
"1079","Chiesanuova","PIEMONTE","Torino","TO","10080","45.4177","7.65583","664","4.0","92","93","185","9","9","18","101","102","203","8.9"
"1080","Chiomonte","PIEMONTE","Torino","TO","10050","45.1178","6.98341","750","26.7","439","460","899","18","15","33","457","475","932","3.5"
"1081","Chiusa di San Michele","PIEMONTE","Torino","TO","10050","45.1009","7.32645","378","6.0","770","774","1544","75","72","147","845","846","1691","8.7"
"1082","Chivasso","PIEMONTE","Torino","TO","10034","45.19","7.88895","183","51.3","12421","11725","24146","967","801","1768","13388","12526","25914","6.8"
"1083","Ciconio","PIEMONTE","Torino","TO","10080","45.3289","7.75896","273","3.2","171","177","348","14","9","23","185","186","371","6.2"
"1084","Cintano","PIEMONTE","Torino","TO","10080","45.4453","7.68327","646","4.9","124","112","236","17","8","25","141","120","261","9.6"
"1085","Cinzano","PIEMONTE","Torino","TO","10090","45.0947","7.92409","495","6.2","170","188","358","12","5","17","182","193","375","4.5"
"1086","Ciriè","PIEMONTE","Torino","TO","10073","45.2332","7.60442","344","17.8","9072","8381","17453","537","425","962","9609","8806","18415","5.2"
"1087","Claviere","PIEMONTE","Torino","TO","10050","44.9394","6.7516","1.760","2.7","76","87","163","18","11","29","94","98","192","15.1"
"1088","Coassolo Torinese","PIEMONTE","Torino","TO","10070","45.2988","7.46057","742","28.0","717","760","1477","44","29","73","761","789","1550","4.7"
"1089","Coazze","PIEMONTE","Torino","TO","10050","45.0515","7.30386","750","56.5","1415","1439","2854","120","110","230","1535","1549","3084","7.5"
"1090","Collegno","PIEMONTE","Torino","TO","10093","45.0787","7.56624","302","18.1","24402","22643","47045","1219","819","2038","25621","23462","49083","4.2"
"1091","Colleretto Castelnuovo","PIEMONTE","Torino","TO","10080","45.4194","7.67779","585","6.4","143","136","279","39","29","68","182","165","347","19.6"
"1092","Colleretto Giacosa","PIEMONTE","Torino","TO","10010","45.4319","7.80372","280","4.6","280","277","557","24","22","46","304","299","603","7.6"
"1093","Condove","PIEMONTE","Torino","TO","10055","45.1136","7.31323","376","71.3","2259","2200","4459","122","89","211","2381","2289","4670","4.5"
"1094","Corio","PIEMONTE","Torino","TO","10070","45.3117","7.53343","625","41.4","1585","1516","3101","131","98","229","1716","1614","3330","6.9"
"1095","Cossano Canavese","PIEMONTE","Torino","TO","10010","45.3883","7.99364","346","3.3","238","263","501","15","6","21","253","269","522","4.0"
"1096","Cuceglio","PIEMONTE","Torino","TO","10090","45.3588","7.81622","375","6.9","447","430","877","65","55","120","512","485","997","12.0"
"1097","Cumiana","PIEMONTE","Torino","TO","10040","44.985","7.37422","377","60.8","3759","3769","7528","181","116","297","3940","3885","7825","3.8"
"1098","Cuorgnè","PIEMONTE","Torino","TO","10082","45.3875","7.6511","414","19.4","4636","4447","9083","531","470","1001","5167","4917","10084","9.9"
"1099","Druento","PIEMONTE","Torino","TO","10040","45.1346","7.57654","285","27.7","4072","3862","7934","285","217","502","4357","4079","8436","6.0"
"1100","Exilles","PIEMONTE","Torino","TO","10050","45.0973","6.92875","870","44.3","126","126","252","9","5","14","135","131","266","5.3"
"1101","Favria","PIEMONTE","Torino","TO","10083","45.3311","7.69122","316","14.9","2447","2382","4829","197","204","401","2644","2586","5230","7.7"
"1102","Feletto","PIEMONTE","Torino","TO","10080","45.3051","7.74629","275","8.0","1030","976","2006","126","137","263","1156","1113","2269","11.6"
"1103","Fenestrelle","PIEMONTE","Torino","TO","10060","45.0366","7.04852","1.154","49.0","266","273","539","5","9","14","271","282","553","2.5"
"1104","Fiano","PIEMONTE","Torino","TO","10070","45.2152","7.52329","429","12.2","1338","1279","2617","51","45","96","1389","1324","2713","3.5"
"1105","Fiorano Canavese","PIEMONTE","Torino","TO","10010","45.4686","7.82915","256","4.3","394","398","792","24","21","45","418","419","837","5.4"
"1106","Foglizzo","PIEMONTE","Torino","TO","10090","45.2718","7.82167","247","15.7","1127","1084","2211","72","48","120","1199","1132","2331","5.1"
"1107","Forno Canavese","PIEMONTE","Torino","TO","10084","45.3385","7.59911","585","16.7","1665","1618","3283","167","162","329","1832","1780","3612","9.1"
"1108","Frassinetto","PIEMONTE","Torino","TO","10080","45.4376","7.60749","1.048","24.8","128","144","272","0","0","0","128","144","272","0.0"
"1109","Front","PIEMONTE","Torino","TO","10070","45.2805","7.66367","270","10.6","822","810","1632","52","42","94","874","852","1726","5.4"
"1110","Frossasco","PIEMONTE","Torino","TO","10060","44.9339","7.35111","376","20.2","1376","1340","2716","71","53","124","1447","1393","2840","4.4"
"1111","Garzigliana","PIEMONTE","Torino","TO","10060","44.8359","7.37489","314","7.4","261","280","541","8","8","16","269","288","557","2.9"
"1112","Gassino Torinese","PIEMONTE","Torino","TO","10090","45.1308","7.82587","230","20.5","4616","4375","8991","295","250","545","4911","4625","9536","5.7"
"1113","Germagnano","PIEMONTE","Torino","TO","10070","45.2613","7.46464","485","14.2","594","574","1168","50","38","88","644","612","1256","7.0"
"1114","Giaglione","PIEMONTE","Torino","TO","10050","45.1415","7.01524","771","33.6","340","310","650","3","0","3","343","310","653","0.5"
"1115","Giaveno","PIEMONTE","Torino","TO","10094","45.042","7.35259","506","72.0","7902","7264","15166","604","511","1115","8506","7775","16281","6.8"
"1116","Givoletto","PIEMONTE","Torino","TO","10040","45.1529","7.49541","398","12.8","1726","1808","3534","61","45","106","1787","1853","3640","2.9"
"1117","Gravere","PIEMONTE","Torino","TO","10050","45.1266","7.01816","821","18.7","330","355","685","19","11","30","349","366","715","4.2"
"1118","Groscavallo","PIEMONTE","Torino","TO","10070","45.3677","7.25695","1.110","93.4","87","104","191","0","0","0","87","104","191","0.0"
"1119","Grosso","PIEMONTE","Torino","TO","10070","45.2599","7.56127","394","4.3","513","466","979","34","27","61","547","493","1040","5.9"
"1120","Grugliasco","PIEMONTE","Torino","TO","10095","45.0661","7.57891","293","13.1","18589","17368","35957","718","519","1237","19307","17887","37194","3.3"
"1121","Ingria","PIEMONTE","Torino","TO","10080","45.4668","7.57136","816","14.6","28","21","49","0","0","0","28","21","49","0.0"
"1122","Inverso Pinasca","PIEMONTE","Torino","TO","10060","44.9412","7.21782","560","7.9","363","361","724","11","6","17","374","367","741","2.3"
"1123","Isolabella","PIEMONTE","Torino","TO","10046","44.9067","7.91009","256","4.7","187","201","388","4","1","5","191","202","393","1.3"
"1124","Issiglio","PIEMONTE","Torino","TO","10080","45.4464","7.75086","485","5.6","205","199","404","13","8","21","218","207","425","4.9"
"1125","Ivrea","PIEMONTE","Torino","TO","10015","45.4673","7.88006","253","30.2","11666","10316","21982","918","692","1610","12584","11008","23592","6.8"
"1126","La Cassa","PIEMONTE","Torino","TO","10040","45.1807","7.51616","374","12.0","843","884","1727","29","25","54","872","909","1781","3.0"
"1127","La Loggia","PIEMONTE","Torino","TO","10040","44.9568","7.66733","230","12.8","4154","4181","8335","152","144","296","4306","4325","8631","3.4"
"1128","Lanzo Torinese","PIEMONTE","Torino","TO","10074","45.2701","7.47747","515","10.4","2497","2322","4819","180","151","331","2677","2473","5150","6.4"
"1129","Lauriano","PIEMONTE","Torino","TO","10020","45.1554","7.99419","175","14.2","728","709","1437","30","26","56","758","735","1493","3.8"
"1130","Leini","PIEMONTE","Torino","TO","10040","45.1834","7.71582","245","32.5","7441","7231","14672","451","400","851","7892","7631","15523","5.5"
"1131","Lemie","PIEMONTE","Torino","TO","10070","45.2285","7.29334","957","45.6","94","95","189","0","0","0","94","95","189","0.0"
"1132","Lessolo","PIEMONTE","Torino","TO","10010","45.4793","7.8161","277","7.9","962","919","1881","62","39","101","1024","958","1982","5.1"
"1133","Levone","PIEMONTE","Torino","TO","10070","45.3186","7.607","353","5.4","204","210","414","11","14","25","215","224","439","5.7"
"1134","Locana","PIEMONTE","Torino","TO","10080","45.4164","7.46542","613","132.7","802","739","1541","38","22","60","840","761","1601","3.7"
"1135","Lombardore","PIEMONTE","Torino","TO","10040","45.2351","7.74134","268","12.7","786","849","1635","41","30","71","827","879","1706","4.2"
"1136","Lombriasco","PIEMONTE","Torino","TO","10040","44.8411","7.63594","241","7.4","478","497","975","38","43","81","516","540","1056","7.7"
"1137","Loranzè","PIEMONTE","Torino","TO","10010","45.4412","7.81215","243","4.2","546","550","1096","25","5","30","571","555","1126","2.7"
"1138","Lugnacco","PIEMONTE","Torino","TO","10080","45.4444","7.78332","540","4.8","179","170","349","15","15","30","194","185","379","7.9"
"1139","Luserna San Giovanni","PIEMONTE","Torino","TO","10062","44.8151","7.24235","474","17.7","3635","3199","6834","359","338","697","3994","3537","7531","9.3"
"1140","Lusernetta","PIEMONTE","Torino","TO","10060","44.8027","7.247","507","7.2","252","261","513","8","3","11","260","264","524","2.1"
"1141","Lusigliè","PIEMONTE","Torino","TO","10080","45.3184","7.76656","268","5.1","261","267","528","14","14","28","275","281","556","5.0"
"1142","Macello","PIEMONTE","Torino","TO","10060","44.8509","7.39716","301","14.1","590","589","1179","30","29","59","620","618","1238","4.8"
"1143","Maglione","PIEMONTE","Torino","TO","10030","45.3482","8.01055","310","6.2","230","214","444","17","7","24","247","221","468","5.1"
"1144","Marentino","PIEMONTE","Torino","TO","10020","45.0547","7.87658","383","11.3","648","685","1333","27","23","50","675","708","1383","3.6"
"1145","Massello","PIEMONTE","Torino","TO","10060","44.9577","7.06149","1.188","38.8","28","30","58","0","0","0","28","30","58","0.0"
"1146","Mathi","PIEMONTE","Torino","TO","10075","45.2518","7.54583","410","7.1","1912","1823","3735","139","111","250","2051","1934","3985","6.3"
"1147","Mattie","PIEMONTE","Torino","TO","10050","45.1191","7.11511","730","27.7","321","346","667","24","16","40","345","362","707","5.7"
"1148","Mazzè","PIEMONTE","Torino","TO","10035","45.2822","7.94194","323","27.8","2047","1953","4000","94","58","152","2141","2011","4152","3.7"
"1149","Meana di Susa","PIEMONTE","Torino","TO","10050","45.1207","7.06685","681","17.7","424","430","854","16","10","26","440","440","880","3.0"
"1150","Mercenasco","PIEMONTE","Torino","TO","10010","45.356","7.88218","249","12.6","567","583","1150","60","57","117","627","640","1267","9.2"
"1151","Meugliano","PIEMONTE","Torino","TO","10080","45.4894","7.77777","680","4.5","38","53","91","1","1","2","39","54","93","2.2"
"1152","Mezzenile","PIEMONTE","Torino","TO","10070","45.2942","7.39337","650","29.0","396","411","807","17","10","27","413","421","834","3.2"
"1153","Mombello di Torino","PIEMONTE","Torino","TO","10020","45.047","7.9207","336","4.1","191","193","384","15","12","27","206","205","411","6.6"
"1154","Mompantero","PIEMONTE","Torino","TO","10059","45.1444","7.07191","838","30.1","327","307","634","10","7","17","337","314","651","2.6"
"1155","Monastero di Lanzo","PIEMONTE","Torino","TO","10070","45.3017","7.43995","825","17.6","183","192","375","5","1","6","188","193","381","1.6"
"1156","Moncalieri","PIEMONTE","Torino","TO","10024","44.9984","7.68029","219","47.6","26760","24825","51585","2375","1915","4290","29135","26740","55875","7.7"
"1157","Moncenisio","PIEMONTE","Torino","TO","10050","45.2038","6.98453","1.461","4.0","22","19","41","0","1","1","22","20","42","2.4"
"1158","Montaldo Torinese","PIEMONTE","Torino","TO","10020","45.0642","7.84897","375","4.7","364","349","713","21","15","36","385","364","749","4.8"
"1159","Montalenghe","PIEMONTE","Torino","TO","10090","45.3345","7.83548","360","6.5","484","487","971","36","23","59","520","510","1030","5.7"
"1160","Montalto Dora","PIEMONTE","Torino","TO","10016","45.4895","7.86225","247","7.5","1665","1577","3242","115","93","208","1780","1670","3450","6.0"
"1161","Montanaro","PIEMONTE","Torino","TO","10017","45.2294","7.85699","209","20.8","2641","2528","5169","112","94","206","2753","2622","5375","3.8"
"1162","Monteu da Po","PIEMONTE","Torino","TO","10020","45.1503","8.01508","177","7.5","403","425","828","37","36","73","440","461","901","8.1"
"1163","Moriondo Torinese","PIEMONTE","Torino","TO","10020","45.0391","7.94371","323","6.5","397","406","803","13","4","17","410","410","820","2.1"
"1164","Nichelino","PIEMONTE","Torino","TO","10042","45.0021","7.65557","229","20.6","23262","22178","45440","1313","1098","2411","24575","23276","47851","5.0"
"1165","Noasca","PIEMONTE","Torino","TO","10080","45.452","7.3179","1.062","78.2","82","87","169","0","0","0","82","87","169","0.0"
"1166","Nole","PIEMONTE","Torino","TO","10076","45.2434","7.57421","372","11.3","3361","3219","6580","162","168","330","3523","3387","6910","4.8"
"1167","Nomaglio","PIEMONTE","Torino","TO","10010","45.5356","7.8597","575","3.1","154","154","308","3","1","4","157","155","312","1.3"
"1168","None","PIEMONTE","Torino","TO","10060","44.9335","7.54098","246","24.7","3817","3826","7643","200","155","355","4017","3981","7998","4.4"
"1169","Novalesa","PIEMONTE","Torino","TO","10050","45.1891","7.01528","828","28.2","283","267","550","6","4","10","289","271","560","1.8"
"1170","Oglianico","PIEMONTE","Torino","TO","10080","45.3429","7.69193","326","6.2","683","656","1339","42","45","87","725","701","1426","6.1"
"1171","Orbassano","PIEMONTE","Torino","TO","10043","45.0077","7.53748","273","22.1","11115","10593","21708","483","346","829","11598","10939","22537","3.7"
"1172","Orio Canavese","PIEMONTE","Torino","TO","10010","45.3279","7.85959","327","7.1","387","401","788","23","18","41","410","419","829","4.9"
"1173","Osasco","PIEMONTE","Torino","TO","10060","44.849","7.3432","344","5.5","577","521","1098","19","7","26","596","528","1124","2.3"
"1174","Osasio","PIEMONTE","Torino","TO","10040","44.8687","7.60557","241","4.5","426","466","892","11","10","21","437","476","913","2.3"
"1175","Oulx","PIEMONTE","Torino","TO","10056","45.0333","6.83363","1.100","100.0","1380","1463","2843","167","150","317","1547","1613","3160","10.0"
"1176","Ozegna","PIEMONTE","Torino","TO","10080","45.3466","7.74808","300","5.5","610","595","1205","18","12","30","628","607","1235","2.4"
"1177","Palazzo Canavese","PIEMONTE","Torino","TO","10010","45.4579","7.976","248","5.1","419","391","810","16","17","33","435","408","843","3.9"
"1178","Pancalieri","PIEMONTE","Torino","TO","10060","44.8328","7.59","243","16.0","913","822","1735","109","141","250","1022","963","1985","12.6"
"1179","Parella","PIEMONTE","Torino","TO","10010","45.4303","7.79154","330","2.8","239","203","442","16","10","26","255","213","468","5.6"
"1180","Pavarolo","PIEMONTE","Torino","TO","10020","45.0689","7.83611","363","4.4","533","516","1049","38","32","70","571","548","1119","6.3"
"1181","Pavone Canavese","PIEMONTE","Torino","TO","10018","45.4344","7.8546","262","11.2","1898","1838","3736","90","64","154","1988","1902","3890","4.0"
"1182","Pecco","PIEMONTE","Torino","TO","10080","45.4522","7.77605","650","2.0","105","101","206","3","0","3","108","101","209","1.4"
"1183","Pecetto Torinese","PIEMONTE","Torino","TO","10020","45.02","7.74838","407","9.2","1897","1809","3706","98","73","171","1995","1882","3877","4.4"
"1184","Perosa Argentina","PIEMONTE","Torino","TO","10063","44.9568","7.19195","608","26.3","1716","1518","3234","101","70","171","1817","1588","3405","5.0"
"1185","Perosa Canavese","PIEMONTE","Torino","TO","10010","45.3956","7.83239","265","5.0","269","261","530","13","13","26","282","274","556","4.7"
"1186","Perrero","PIEMONTE","Torino","TO","10060","44.9385","7.11423","844","63.5","329","371","700","9","14","23","338","385","723","3.2"
"1187","Pertusio","PIEMONTE","Torino","TO","10080","45.3535","7.64342","364","4.0","378","372","750","13","10","23","391","382","773","3.0"
"1188","Pessinetto","PIEMONTE","Torino","TO","10070","45.2886","7.40392","590","5.4","270","279","549","35","23","58","305","302","607","9.6"
"1189","Pianezza","PIEMONTE","Torino","TO","10044","45.1007","7.54476","325","16.5","6957","6745","13702","283","184","467","7240","6929","14169","3.3"
"1190","Pinasca","PIEMONTE","Torino","TO","10060","44.9442","7.22508","560","34.8","1521","1413","2934","66","49","115","1587","1462","3049","3.8"
"1191","Pinerolo","PIEMONTE","Torino","TO","10064","44.8854","7.33352","376","50.3","17172","15427","32599","1264","991","2255","18436","16418","34854","6.5"
"1192","Pino Torinese","PIEMONTE","Torino","TO","10025","45.0432","7.77381","495","21.9","4196","3875","8071","259","151","410","4455","4026","8481","4.8"
"1193","Piobesi Torinese","PIEMONTE","Torino","TO","10040","44.9322","7.611","233","19.7","1838","1774","3612","59","42","101","1897","1816","3713","2.7"
"1194","Piossasco","PIEMONTE","Torino","TO","10045","44.9898","7.4682","304","40.0","8838","8643","17481","401","304","705","9239","8947","18186","3.9"
"1195","Piscina","PIEMONTE","Torino","TO","10060","44.92","7.42521","288","9.9","1673","1602","3275","100","75","175","1773","1677","3450","5.1"
"1196","Piverone","PIEMONTE","Torino","TO","10010","45.4477","8.00739","295","11.1","673","643","1316","41","21","62","714","664","1378","4.5"
"1197","Poirino","PIEMONTE","Torino","TO","10046","44.9194","7.8482","249","75.7","4783","4813","9596","343","281","624","5126","5094","10220","6.1"
"1198","Pomaretto","PIEMONTE","Torino","TO","10063","44.9558","7.18217","630","8.5","539","484","1023","23","22","45","562","506","1068","4.2"
"1199","Pont-Canavese","PIEMONTE","Torino","TO","10085","45.4199","7.59723","451","19.4","1705","1563","3268","204","204","408","1909","1767","3676","11.1"
"1200","Porte","PIEMONTE","Torino","TO","10060","44.8867","7.27216","436","4.4","505","513","1018","50","45","95","555","558","1113","8.5"
"1201","Pragelato","PIEMONTE","Torino","TO","10060","45.0144","6.94158","1.524","89.3","275","288","563","87","74","161","362","362","724","22.2"
"1202","Prali","PIEMONTE","Torino","TO","10060","44.8888","7.05174","1.455","72.5","119","140","259","4","9","13","123","149","272","4.8"
"1203","Pralormo","PIEMONTE","Torino","TO","10040","44.86","7.90293","303","29.8","901","890","1791","84","70","154","985","960","1945","7.9"
"1204","Pramollo","PIEMONTE","Torino","TO","10065","44.9029","7.21502","1.071","22.5","105","135","240","2","0","2","107","135","242","0.8"
"1205","Prarostino","PIEMONTE","Torino","TO","10060","44.8735","7.28707","732","10.6","638","621","1259","19","11","30","657","632","1289","2.3"
"1206","Prascorsano","PIEMONTE","Torino","TO","10080","45.3676","7.61693","590","6.3","370","383","753","14","14","28","384","397","781","3.6"
"1207","Pratiglione","PIEMONTE","Torino","TO","10080","45.3515","7.59756","611","8.0","253","244","497","27","24","51","280","268","548","9.3"
"1208","Quagliuzzo","PIEMONTE","Torino","TO","10010","45.426","7.78087","334","1.9","157","157","314","9","8","17","166","165","331","5.1"
"1209","Quassolo","PIEMONTE","Torino","TO","10010","45.5238","7.83319","275","3.9","189","155","344","9","6","15","198","161","359","4.2"
"1210","Quincinetto","PIEMONTE","Torino","TO","10010","45.5624","7.80529","295","17.8","499","510","1009","24","15","39","523","525","1048","3.7"
"1211","Reano","PIEMONTE","Torino","TO","10090","45.0517","7.42969","470","6.6","829","809","1638","36","15","51","865","824","1689","3.0"
"1212","Ribordone","PIEMONTE","Torino","TO","10080","45.4324","7.50243","1.023","43.2","37","29","66","0","1","1","37","30","67","1.5"
"1213","Rivalba","PIEMONTE","Torino","TO","10090","45.1168","7.88743","328","10.9","571","550","1121","20","18","38","591","568","1159","3.3"
"1214","Rivalta di Torino","PIEMONTE","Torino","TO","10040","45.0316","7.52543","294","25.3","9215","9167","18382","486","377","863","9701","9544","19245","4.5"
"1215","Riva presso Chieri","PIEMONTE","Torino","TO","10020","44.9848","7.87044","262","35.8","2040","2018","4058","89","60","149","2129","2078","4207","3.5"
"1216","Rivara","PIEMONTE","Torino","TO","10080","45.3336","7.62371","392","12.4","1271","1227","2498","89","79","168","1360","1306","2666","6.3"
"1217","Rivarolo Canavese","PIEMONTE","Torino","TO","10086","45.332","7.72317","304","32.3","6059","5595","11654","380","322","702","6439","5917","12356","5.7"
"1218","Rivarossa","PIEMONTE","Torino","TO","10040","45.251","7.71789","286","11.0","746","778","1524","53","49","102","799","827","1626","6.3"
"1219","Rivoli","PIEMONTE","Torino","TO","10098","45.0711","7.51382","390","29.5","24245","22624","46869","1069","694","1763","25314","23318","48632","3.6"
"1220","Robassomero","PIEMONTE","Torino","TO","10070","45.1981","7.56615","360","8.4","1479","1405","2884","57","35","92","1536","1440","2976","3.1"
"1221","Rocca Canavese","PIEMONTE","Torino","TO","10070","45.3087","7.57625","421","14.2","830","832","1662","51","41","92","881","873","1754","5.2"
"1222","Roletto","PIEMONTE","Torino","TO","10060","44.9252","7.33086","412","9.8","963","974","1937","34","18","52","997","992","1989","2.6"
"1223","Romano Canavese","PIEMONTE","Torino","TO","10090","45.3905","7.86555","270","11.2","1416","1355","2771","95","71","166","1511","1426","2937","5.7"
"1224","Ronco Canavese","PIEMONTE","Torino","TO","10080","45.5031","7.54881","956","96.9","146","147","293","10","10","20","156","157","313","6.4"
"1225","Rondissone","PIEMONTE","Torino","TO","10030","45.2469","7.96359","211","10.7","828","871","1699","67","68","135","895","939","1834","7.4"
"1226","Rorà","PIEMONTE","Torino","TO","10060","44.7924","7.19917","967","12.3","119","133","252","3","0","3","122","133","255","1.2"
"1227","Roure","PIEMONTE","Torino","TO","10060","44.995","7.1368","860","59.7","441","418","859","16","13","29","457","431","888","3.3"
"1228","Rosta","PIEMONTE","Torino","TO","10090","45.0705","7.47269","399","9.0","2259","2225","4484","87","50","137","2346","2275","4621","3.0"
"1229","Rubiana","PIEMONTE","Torino","TO","10040","45.1359","7.3846","640","26.8","1103","1133","2236","100","81","181","1203","1214","2417","7.5"
"1230","Rueglio","PIEMONTE","Torino","TO","10010","45.4687","7.75533","675","15.3","380","370","750","17","6","23","397","376","773","3.0"
"1231","Salassa","PIEMONTE","Torino","TO","10080","45.3558","7.6921","349","5.0","852","853","1705","51","39","90","903","892","1795","5.0"
"1232","Salbertrand","PIEMONTE","Torino","TO","10050","45.0693","6.87725","1.032","40.9","240","275","515","35","29","64","275","304","579","11.1"
"1233","Salerano Canavese","PIEMONTE","Torino","TO","10010","45.4583","7.85023","247","2.2","240","251","491","19","12","31","259","263","522","5.9"
"1234","Salza di Pinerolo","PIEMONTE","Torino","TO","10060","44.9315","7.06883","1.210","15.4","33","45","78","0","0","0","33","45","78","0.0"
"1235","Samone","PIEMONTE","Torino","TO","10010","45.4491","7.84367","247","2.5","764","757","1521","50","43","93","814","800","1614","5.8"
"1236","San Benigno Canavese","PIEMONTE","Torino","TO","10080","45.222","7.78787","213","22.2","2684","2601","5285","177","153","330","2861","2754","5615","5.9"
"1237","San Carlo Canavese","PIEMONTE","Torino","TO","10070","45.2486","7.61025","370","21.0","1933","1832","3765","69","40","109","2002","1872","3874","2.8"
"1238","San Colombano Belmonte","PIEMONTE","Torino","TO","10080","45.3818","7.62045","550","3.4","184","181","365","6","5","11","190","186","376","2.9"
"1239","San Didero","PIEMONTE","Torino","TO","10050","45.1336","7.21557","430","3.3","268","277","545","9","12","21","277","289","566","3.7"
"1240","San Francesco al Campo","PIEMONTE","Torino","TO","10070","45.228","7.64614","327","15.0","2373","2308","4681","85","59","144","2458","2367","4825","3.0"
"1241","Sangano","PIEMONTE","Torino","TO","10090","45.027","7.45049","340","6.8","1919","1795","3714","64","29","93","1983","1824","3807","2.4"
"1242","San Germano Chisone","PIEMONTE","Torino","TO","10065","44.8982","7.23972","486","15.9","909","889","1798","43","33","76","952","922","1874","4.1"
"1243","San Gillio","PIEMONTE","Torino","TO","10040","45.1421","7.53175","320","8.9","1511","1419","2930","50","43","93","1561","1462","3023","3.1"
"1244","San Giorgio Canavese","PIEMONTE","Torino","TO","10090","45.3358","7.79523","300","20.4","1281","1227","2508","104","93","197","1385","1320","2705","7.3"
"1245","San Giorio di Susa","PIEMONTE","Torino","TO","10050","45.127","7.17967","420","19.6","485","463","948","48","44","92","533","507","1040","8.8"
"1246","San Giusto Canavese","PIEMONTE","Torino","TO","10090","45.3123","7.81037","264","9.7","1647","1511","3158","122","117","239","1769","1628","3397","7.0"
"1247","San Martino Canavese","PIEMONTE","Torino","TO","10010","45.394","7.81526","385","9.8","404","414","818","18","15","33","422","429","851","3.9"
"1248","San Maurizio Canavese","PIEMONTE","Torino","TO","10077","45.2165","7.63353","317","17.5","4726","4567","9293","187","166","353","4913","4733","9646","3.7"
"1249","San Mauro Torinese","PIEMONTE","Torino","TO","10099","45.1021","7.76536","211","12.6","9423","8835","18258","400","267","667","9823","9102","18925","3.5"
"1250","San Pietro Val Lemina","PIEMONTE","Torino","TO","10060","44.9117","7.30983","451","12.4","696","685","1381","25","24","49","721","709","1430","3.4"
"1251","San Ponso","PIEMONTE","Torino","TO","10080","45.3504","7.67179","347","2.2","136","139","275","2","2","4","138","141","279","1.4"
"1252","San Raffaele Cimena","PIEMONTE","Torino","TO","10090","45.1557","7.86348","195","11.2","1469","1481","2950","100","57","157","1569","1538","3107","5.1"
"1253","San Sebastiano da Po","PIEMONTE","Torino","TO","10020","45.1596","7.95638","175","16.6","934","908","1842","35","32","67","969","940","1909","3.5"
"1254","San Secondo di Pinerolo","PIEMONTE","Torino","TO","10060","44.8646","7.29884","413","12.6","1775","1748","3523","56","29","85","1831","1777","3608","2.4"
"1255","Sant'Ambrogio di Torino","PIEMONTE","Torino","TO","10057","45.0957","7.36835","356","8.6","2211","2189","4400","190","163","353","2401","2352","4753","7.4"
"1256","Sant'Antonino di Susa","PIEMONTE","Torino","TO","10050","45.1081","7.26959","380","10.0","2068","1885","3953","202","178","380","2270","2063","4333","8.8"
"1257","Santena","PIEMONTE","Torino","TO","10026","44.9501","7.77333","237","16.2","5044","4881","9925","428","385","813","5472","5266","10738","7.6"
"1258","Sauze di Cesana","PIEMONTE","Torino","TO","10054","44.9402","6.8585","1.560","78.5","91","114","205","9","5","14","100","119","219","6.4"
"1259","Sauze d'Oulx","PIEMONTE","Torino","TO","10050","45.0291","6.86117","1.509","17.1","473","551","1024","53","34","87","526","585","1111","7.8"
"1260","Scalenghe","PIEMONTE","Torino","TO","10060","44.8881","7.49576","262","31.8","1576","1588","3164","75","64","139","1651","1652","3303","4.2"
"1261","Scarmagno","PIEMONTE","Torino","TO","10010","45.3845","7.84105","278","8.0","396","376","772","23","17","40","419","393","812","4.9"
"1262","Sciolze","PIEMONTE","Torino","TO","10090","45.0952","7.87608","436","11.3","711","696","1407","57","49","106","768","745","1513","7.0"
"1263","Sestriere","PIEMONTE","Torino","TO","10058","44.9568","6.87776","2.035","25.8","349","393","742","45","51","96","394","444","838","11.5"
"1264","Settimo Rottaro","PIEMONTE","Torino","TO","10010","45.4047","7.99128","258","6.1","245","237","482","13","8","21","258","245","503","4.2"
"1265","Settimo Torinese","PIEMONTE","Torino","TO","10036","45.1396","7.77098","207","32.4","23101","21722","44823","1142","910","2052","24243","22632","46875","4.4"
"1266","Settimo Vittone","PIEMONTE","Torino","TO","10010","45.5489","7.82928","282","23.2","754","727","1481","34","28","62","788","755","1543","4.0"
"1267","Sparone","PIEMONTE","Torino","TO","10080","45.4114","7.54191","552","29.5","507","477","984","54","47","101","561","524","1085","9.3"
"1268","Strambinello","PIEMONTE","Torino","TO","10010","45.4237","7.76962","356","2.2","144","116","260","2","2","4","146","118","264","1.5"
"1269","Strambino","PIEMONTE","Torino","TO","10019","45.3817","7.88483","240","22.8","3158","2876","6034","165","137","302","3323","3013","6336","4.8"
"1270","Susa","PIEMONTE","Torino","TO","10059","45.1386","7.04846","503","11.3","3153","2898","6051","313","265","578","3466","3163","6629","8.7"
"1271","Tavagnasco","PIEMONTE","Torino","TO","10010","45.546","7.82043","270","8.7","391","373","764","23","26","49","414","399","813","6.0"
"1272","Torino","PIEMONTE","Torino","TO","10100","45.0629","7.67849","239","130.2","401121","360432","761553","58603","52211","110814","459724","412643","872367","12.7"
"1273","Torrazza Piemonte","PIEMONTE","Torino","TO","10037","45.0856","7.93286","197","9.9","1350","1361","2711","59","46","105","1409","1407","2816","3.7"
"1274","Torre Canavese","PIEMONTE","Torino","TO","10010","45.3897","7.7606","417","5.5","297","279","576","8","5","13","305","284","589","2.2"
"1275","Torre Pellice","PIEMONTE","Torino","TO","10066","44.8198","7.2014","516","21.2","2295","1969","4264","167","142","309","2462","2111","4573","6.8"
"1276","Trana","PIEMONTE","Torino","TO","10090","45.0385","7.41902","372","16.4","1866","1832","3698","102","81","183","1968","1913","3881","4.7"
"1277","Trausella","PIEMONTE","Torino","TO","10080","45.4906","7.76279","654","12.1","71","58","129","1","1","2","72","59","131","1.5"
"1278","Traversella","PIEMONTE","Torino","TO","10080","45.5091","7.75028","827","39.5","176","167","343","4","3","7","180","170","350","2.0"
"1279","Traves","PIEMONTE","Torino","TO","10070","45.2688","7.42873","628","10.8","259","272","531","16","6","22","275","278","553","4.0"
"1280","Trofarello","PIEMONTE","Torino","TO","10028","44.9839","7.74195","276","12.3","5347","5053","10400","300","211","511","5647","5264","10911","4.7"
"1281","Usseaux","PIEMONTE","Torino","TO","10060","45.0489","7.02979","1.416","38.3","84","94","178","4","3","7","88","97","185","3.8"
"1282","Usseglio","PIEMONTE","Torino","TO","10070","45.2323","7.21717","1.265","98.0","105","113","218","1","0","1","106","113","219","0.5"
"1283","Vaie","PIEMONTE","Torino","TO","10050","45.1018","7.28664","381","7.1","694","687","1381","37","37","74","731","724","1455","5.1"
"1284","Val della Torre","PIEMONTE","Torino","TO","10040","45.1572","7.43924","510","36.7","1797","1893","3690","69","53","122","1866","1946","3812","3.2"
"1285","Valgioie","PIEMONTE","Torino","TO","10094","45.077","7.33806","870","9.1","404","475","879","40","29","69","444","504","948","7.3"
"1286","Vallo Torinese","PIEMONTE","Torino","TO","10070","45.2223","7.49353","508","6.2","372","377","749","16","20","36","388","397","785","4.6"
"1287","Valperga","PIEMONTE","Torino","TO","10087","45.3703","7.65757","385","11.8","1549","1398","2947","122","94","216","1671","1492","3163","6.8"
"1288","Valprato Soana","PIEMONTE","Torino","TO","10080","45.5213","7.54899","1.113","71.6","61","51","112","0","0","0","61","51","112","0.0"
"1289","Varisella","PIEMONTE","Torino","TO","10070","45.2106","7.48581","521","22.4","405","395","800","19","11","30","424","406","830","3.6"
"1290","Vauda Canavese","PIEMONTE","Torino","TO","10070","45.2797","7.61647","396","7.3","722","706","1428","21","16","37","743","722","1465","2.5"
"1291","Venaus","PIEMONTE","Torino","TO","10050","45.1512","7.01707","604","19.8","479","466","945","9","5","14","488","471","959","1.5"
"1292","Venaria Reale","PIEMONTE","Torino","TO","10078","45.1302","7.63105","262","20.3","16789","16025","32814","556","371","927","17345","16396","33741","2.7"
"1293","Verolengo","PIEMONTE","Torino","TO","10038","45.1897","7.9671","169","29.2","2405","2346","4751","121","90","211","2526","2436","4962","4.3"
"1294","Verrua Savoia","PIEMONTE","Torino","TO","10020","45.1551","8.0938","287","31.9","707","697","1404","33","22","55","740","719","1459","3.8"
"1295","Vestignè","PIEMONTE","Torino","TO","10030","45.3858","7.95463","235","12.1","405","388","793","23","14","37","428","402","830","4.5"
"1296","Vialfrè","PIEMONTE","Torino","TO","10090","45.381","7.81894","470","4.5","125","118","243","7","4","11","132","122","254","4.3"
"1297","Vico Canavese","PIEMONTE","Torino","TO","10080","45.4922","7.78447","738","32.8","432","406","838","29","15","44","461","421","882","5.0"
"1298","Vidracco","PIEMONTE","Torino","TO","10080","45.4299","7.75577","481","3.2","236","242","478","13","9","22","249","251","500","4.4"
"1299","Vigone","PIEMONTE","Torino","TO","10067","44.8431","7.49561","260","41.1","2540","2440","4980","131","106","237","2671","2546","5217","4.5"
"1300","Villafranca Piemonte","PIEMONTE","Torino","TO","10068","44.7821","7.5067","253","51.0","2341","2219","4560","134","131","265","2475","2350","4825","5.5"
"1301","Villanova Canavese","PIEMONTE","Torino","TO","10070","45.2432","7.55355","380","4.0","554","530","1084","26","25","51","580","555","1135","4.5"
"1302","Villarbasse","PIEMONTE","Torino","TO","10090","45.0446","7.4673","381","10.4","1639","1584","3223","70","30","100","1709","1614","3323","3.0"
"1303","Villar Dora","PIEMONTE","Torino","TO","10040","45.1181","7.38664","367","5.6","1458","1368","2826","64","61","125","1522","1429","2951","4.2"
"1304","Villareggia","PIEMONTE","Torino","TO","10030","45.3099","7.97685","274","11.1","478","485","963","35","14","49","513","499","1012","4.8"
"1305","Villar Focchiardo","PIEMONTE","Torino","TO","10050","45.1097","7.23291","450","25.6","1004","991","1995","39","34","73","1043","1025","2068","3.5"
"1306","Villar Pellice","PIEMONTE","Torino","TO","10060","44.808","7.15566","664","60.8","556","542","1098","17","5","22","573","547","1120","2.0"
"1307","Villar Perosa","PIEMONTE","Torino","TO","10069","44.9174","7.24798","530","11.5","2028","1931","3959","95","95","190","2123","2026","4149","4.6"
"1308","Villastellone","PIEMONTE","Torino","TO","10029","44.9235","7.74414","234","19.7","2288","2218","4506","201","157","358","2489","2375","4864","7.4"
"1309","Vinovo","PIEMONTE","Torino","TO","10048","44.9464","7.6327","232","17.7","6855","6727","13582","306","220","526","7161","6947","14108","3.7"
"1310","Virle Piemonte","PIEMONTE","Torino","TO","10060","44.8626","7.57131","246","14.2","529","531","1060","68","63","131","597","594","1191","11.0"
"1311","Vische","PIEMONTE","Torino","TO","10030","45.3341","7.94718","243","16.9","642","614","1256","40","18","58","682","632","1314","4.4"
"1312","Vistrorio","PIEMONTE","Torino","TO","10080","45.4413","7.76625","480","4.6","269","220","489","20","12","32","289","232","521","6.1"
"1313","Viù","PIEMONTE","Torino","TO","10070","45.2388","7.37632","774","84.5","547","558","1105","10","3","13","557","561","1118","1.2"
"1314","Volpiano","PIEMONTE","Torino","TO","10088","45.201","7.77987","219","32.4","7283","6994","14277","394","327","721","7677","7321","14998","4.8"
"1315","Volvera","PIEMONTE","Torino","TO","10040","44.9524","7.51218","251","20.9","4225","4203","8428","154","108","262","4379","4311","8690","3.0"
"2002","Alagna Valsesia","PIEMONTE","Vercelli","VC","13021","45.8544","7.93762","1.191","72.8","194","219","413","6","1","7","200","220","420","1.7"
"2003","Albano Vercellese","PIEMONTE","Vercelli","VC","13030","45.4269","8.38104","151","13.8","146","159","305","15","14","29","161","173","334","8.7"
"2004","Alice Castello","PIEMONTE","Vercelli","VC","13040","45.3702","8.07675","258","24.8","1263","1236","2499","109","113","222","1372","1349","2721","8.2"
"2006","Arborio","PIEMONTE","Vercelli","VC","13031","45.4968","8.38976","185","23.2","412","438","850","21","38","59","433","476","909","6.5"
"2007","Asigliano Vercellese","PIEMONTE","Vercelli","VC","13032","45.2605","8.40833","127","26.3","694","644","1338","39","24","63","733","668","1401","4.5"
"2008","Balmuccia","PIEMONTE","Vercelli","VC","13020","45.8193","8.13907","560","10.2","53","38","91","1","2","3","54","40","94","3.2"
"2009","Balocco","PIEMONTE","Vercelli","VC","13040","45.4538","8.28167","166","16.7","105","125","230","7","2","9","112","127","239","3.8"
"2011","Bianzè","PIEMONTE","Vercelli","VC","13041","45.3108","8.11994","182","41.8","985","921","1906","61","61","122","1046","982","2028","6.0"
"2014","Boccioleto","PIEMONTE","Vercelli","VC","13022","45.8302","8.11229","667","33.8","114","99","213","3","3","6","117","102","219","2.7"
"2015","Borgo d'Ale","PIEMONTE","Vercelli","VC","13040","45.3494","8.05349","242","39.3","1206","1188","2394","102","92","194","1308","1280","2588","7.5"
"2016","Borgosesia","PIEMONTE","Vercelli","VC","13011","45.7111","8.29058","354","40.6","6478","5784","12262","438","331","769","6916","6115","13031","5.9"
"2017","Borgo Vercelli","PIEMONTE","Vercelli","VC","13012","45.3578","8.46651","126","19.4","1128","1031","2159","63","73","136","1191","1104","2295","5.9"
"2019","Breia","PIEMONTE","Vercelli","VC","13020","45.7648","8.30609","809","7.4","92","85","177","1","0","1","93","85","178","0.6"
"2021","Buronzo","PIEMONTE","Vercelli","VC","13040","45.4778","8.26468","189","25.0","458","423","881","27","8","35","485","431","916","3.8"
"2025","Campertogno","PIEMONTE","Vercelli","VC","13023","45.7981","8.03237","815","34.2","112","122","234","3","6","9","115","128","243","3.7"
"2029","Carcoforo","PIEMONTE","Vercelli","VC","13026","45.9085","8.05083","1.304","22.9","37","38","75","0","0","0","37","38","75","0.0"
"2030","Caresana","PIEMONTE","Vercelli","VC","13010","45.2185","8.49657","119","23.7","502","484","986","22","20","42","524","504","1028","4.1"
"2031","Caresanablot","PIEMONTE","Vercelli","VC","13030","45.3545","8.38288","135","11.1","563","550","1113","13","11","24","576","561","1137","2.1"
"2032","Carisio","PIEMONTE","Vercelli","VC","13040","45.408","8.19841","183","30.1","395","404","799","33","32","65","428","436","864","7.5"
"2033","Casanova Elvo","PIEMONTE","Vercelli","VC","13030","45.4006","8.29151","152","16.3","120","132","252","9","4","13","129","136","265","4.9"
"2035","San Giacomo Vercellese","PIEMONTE","Vercelli","VC","13030","45.4974","8.32647","197","9.6","164","158","322","2","5","7","166","163","329","2.1"
"2038","Cellio","PIEMONTE","Vercelli","VC","13024","45.7527","8.31169","685","10.1","407","411","818","24","7","31","431","418","849","3.7"
"2041","Cervatto","PIEMONTE","Vercelli","VC","13025","45.8827","8.16319","1.004","9.3","19","28","47","1","0","1","20","28","48","2.1"
"2042","Cigliano","PIEMONTE","Vercelli","VC","13043","45.3091","8.01966","237","25.4","2202","2035","4237","169","141","310","2371","2176","4547","6.8"
"2043","Civiasco","PIEMONTE","Vercelli","VC","13010","45.8078","8.29448","716","7.3","134","126","260","4","1","5","138","127","265","1.9"
"2045","Collobiano","PIEMONTE","Vercelli","VC","13030","45.4041","8.35178","143","9.1","57","45","102","1","2","3","58","47","105","2.9"
"2047","Costanzana","PIEMONTE","Vercelli","VC","13033","45.2284","8.36287","129","21.1","403","377","780","23","13","36","426","390","816","4.4"
"2048","Cravagliana","PIEMONTE","Vercelli","VC","13020","45.8477","8.20211","615","34.5","133","141","274","3","1","4","136","142","278","1.4"
"2049","Crescentino","PIEMONTE","Vercelli","VC","13044","45.1919","8.1028","154","48.3","3825","3616","7441","293","250","543","4118","3866","7984","6.8"
"2052","Crova","PIEMONTE","Vercelli","VC","13040","45.3296","8.21312","167","14.2","213","190","403","4","3","7","217","193","410","1.7"
"2054","Desana","PIEMONTE","Vercelli","VC","13034","45.2715","8.36081","131","16.5","536","489","1025","16","14","30","552","503","1055","2.8"
"2057","Fobello","PIEMONTE","Vercelli","VC","13025","45.8904","8.15589","873","29.3","94","121","215","4","0","4","98","121","219","1.8"
"2058","Fontanetto Po","PIEMONTE","Vercelli","VC","13040","45.1942","8.19296","143","23.3","555","540","1095","56","52","108","611","592","1203","9.0"
"2059","Formigliana","PIEMONTE","Vercelli","VC","13030","45.4299","8.28738","157","17.1","237","259","496","28","26","54","265","285","550","9.8"
"2061","Gattinara","PIEMONTE","Vercelli","VC","13045","45.614","8.37152","263","33.5","4019","3736","7755","293","224","517","4312","3960","8272","6.3"
"2062","Ghislarengo","PIEMONTE","Vercelli","VC","13030","45.5288","8.38631","206","12.5","448","417","865","18","16","34","466","433","899","3.8"
"2065","Greggio","PIEMONTE","Vercelli","VC","13030","45.4532","8.385","161","12.0","184","179","363","8","11","19","192","190","382","5.0"
"2066","Guardabosone","PIEMONTE","Vercelli","VC","13010","45.7014","8.24978","479","6.8","164","163","327","9","4","13","173","167","340","3.8"
"2067","Lamporo","PIEMONTE","Vercelli","VC","13046","45.2304","8.09751","165","9.8","263","265","528","9","9","18","272","274","546","3.3"
"2068","Lenta","PIEMONTE","Vercelli","VC","13035","45.556","8.38426","219","19.0","435","419","854","14","10","24","449","429","878","2.7"
"2070","Lignana","PIEMONTE","Vercelli","VC","13034","45.2861","8.34657","134","22.5","293","274","567","10","2","12","303","276","579","2.1"
"2071","Livorno Ferraris","PIEMONTE","Vercelli","VC","13046","45.2817","8.08492","188","58.2","2049","1966","4015","219","216","435","2268","2182","4450","9.8"
"2072","Lozzolo","PIEMONTE","Vercelli","VC","13045","45.6218","8.32572","320","6.7","413","388","801","12","6","18","425","394","819","2.2"
"2078","Mollia","PIEMONTE","Vercelli","VC","13020","45.8162","8.0302","880","14.1","46","52","98","3","3","6","49","55","104","5.8"
"2079","Moncrivello","PIEMONTE","Vercelli","VC","13040","45.3305","7.9979","322","20.2","702","685","1387","44","34","78","746","719","1465","5.3"
"2082","Motta de' Conti","PIEMONTE","Vercelli","VC","13010","45.1921","8.51859","107","11.8","394","389","783","13","8","21","407","397","804","2.6"
"2088","Olcenengo","PIEMONTE","Vercelli","VC","13047","45.362","8.31103","149","16.5","369","360","729","15","10","25","384","370","754","3.3"
"2089","Oldenico","PIEMONTE","Vercelli","VC","13030","45.4026","8.37897","143","6.5","111","117","228","12","12","24","123","129","252","9.5"
"2090","Palazzolo Vercellese","PIEMONTE","Vercelli","VC","13040","45.1862","8.2311","137","13.9","607","602","1209","45","38","83","652","640","1292","6.4"
"2091","Pertengo","PIEMONTE","Vercelli","VC","13030","45.2362","8.41565","122","8.3","156","150","306","7","8","15","163","158","321","4.7"
"2093","Pezzana","PIEMONTE","Vercelli","VC","13010","45.2629","8.48902","117","17.4","673","624","1297","26","23","49","699","647","1346","3.6"
"2096","Pila","PIEMONTE","Vercelli","VC","13020","45.769","8.08008","686","8.7","57","72","129","4","4","8","61","76","137","5.8"
"2097","Piode","PIEMONTE","Vercelli","VC","13020","45.7706","8.05276","752","13.5","96","92","188","3","2","5","99","94","193","2.6"
"2102","Postua","PIEMONTE","Vercelli","VC","13010","45.7099","8.22884","459","16.7","280","292","572","14","8","22","294","300","594","3.7"
"2104","Prarolo","PIEMONTE","Vercelli","VC","13012","45.2818","8.47775","117","11.6","338","323","661","7","4","11","345","327","672","1.6"
"2107","Quarona","PIEMONTE","Vercelli","VC","13017","45.7617","8.26858","406","16.0","2126","1957","4083","94","69","163","2220","2026","4246","3.8"
"2108","Quinto Vercellese","PIEMONTE","Vercelli","VC","13030","45.3809","8.35949","140","11.1","203","186","389","5","6","11","208","192","400","2.8"
"2110","Rassa","PIEMONTE","Vercelli","VC","13020","45.7682","8.01302","917","43.4","33","32","65","1","0","1","34","32","66","1.5"
"2111","Rima San Giuseppe","PIEMONTE","Vercelli","VC","13026","45.8854","7.99925","1.411","35.4","31","36","67","0","0","0","31","36","67","0.0"
"2112","Rimasco","PIEMONTE","Vercelli","VC","13026","45.8591","8.06257","906","24.3","53","67","120","0","3","3","53","70","123","2.4"
"2113","Rimella","PIEMONTE","Vercelli","VC","13020","45.9077","8.18219","1.176","28.9","54","82","136","1","0","1","55","82","137","0.7"
"2114","Riva Valdobbia","PIEMONTE","Vercelli","VC","13020","45.8328","7.9543","1.112","61.7","117","127","244","5","2","7","122","129","251","2.8"
"2115","Rive","PIEMONTE","Vercelli","VC","13030","45.212","8.41778","126","9.5","242","210","452","5","12","17","247","222","469","3.6"
"2116","Roasio","PIEMONTE","Vercelli","VC","13060","45.6076","8.28457","278","28.1","1204","1166","2370","59","36","95","1263","1202","2465","3.9"
"2118","Ronsecco","PIEMONTE","Vercelli","VC","13036","45.2511","8.28434","145","24.6","300","270","570","6","4","10","306","274","580","1.7"
"2121","Rossa","PIEMONTE","Vercelli","VC","13020","45.8337","8.12576","813","11.6","88","104","192","1","1","2","89","105","194","1.0"
"2122","Rovasenda","PIEMONTE","Vercelli","VC","13040","45.539","8.31466","221","29.3","466","452","918","35","26","61","501","478","979","6.2"
"2123","Sabbia","PIEMONTE","Vercelli","VC","13020","45.8592","8.23498","728","14.6","27","30","57","0","0","0","27","30","57","0.0"
"2126","Salasco","PIEMONTE","Vercelli","VC","13040","45.3254","8.26502","148","12.1","105","112","217","10","10","20","115","122","237","8.4"
"2127","Sali Vercellese","PIEMONTE","Vercelli","VC","13040","45.3099","8.32949","139","8.8","52","54","106","4","4","8","56","58","114","7.0"
"2128","Saluggia","PIEMONTE","Vercelli","VC","13040","45.2354","8.01058","194","31.7","1972","1880","3852","170","148","318","2142","2028","4170","7.6"
"2131","San Germano Vercellese","PIEMONTE","Vercelli","VC","13047","45.3499","8.24709","161","30.7","786","736","1522","118","128","246","904","864","1768","13.9"
"2133","Santhià","PIEMONTE","Vercelli","VC","13048","45.3648","8.17138","183","53.3","4275","3941","8216","316","293","609","4591","4234","8825","6.9"
"2134","Scopa","PIEMONTE","Vercelli","VC","13027","45.7929","8.11314","622","22.6","194","185","379","5","7","12","199","192","391","3.1"
"2135","Scopello","PIEMONTE","Vercelli","VC","13028","45.7732","8.09376","659","18.6","196","193","389","8","5","13","204","198","402","3.2"
"2137","Serravalle Sesia","PIEMONTE","Vercelli","VC","13037","45.6785","8.31253","313","20.4","2386","2236","4622","266","253","519","2652","2489","5141","10.1"
"2142","Stroppiana","PIEMONTE","Vercelli","VC","13010","45.2315","8.45472","119","18.1","628","603","1231","15","12","27","643","615","1258","2.1"
"2147","Tricerro","PIEMONTE","Vercelli","VC","13038","45.2333","8.32409","141","12.3","334","339","673","21","15","36","355","354","709","5.1"
"2148","Trino","PIEMONTE","Vercelli","VC","13039","45.1943","8.29661","130","70.6","3419","3201","6620","414","403","817","3833","3604","7437","11.0"
"2150","Tronzano Vercellese","PIEMONTE","Vercelli","VC","13049","45.3408","8.17693","182","45.0","1737","1605","3342","105","111","216","1842","1716","3558","6.1"
"2152","Valduggia","PIEMONTE","Vercelli","VC","13018","45.7218","8.32153","390","28.7","1001","998","1999","65","53","118","1066","1051","2117","5.6"
"2156","Varallo","PIEMONTE","Vercelli","VC","13019","45.8126","8.26166","450","88.7","3650","3385","7035","278","172","450","3928","3557","7485","6.0"
"2158","Vercelli","PIEMONTE","Vercelli","VC","13100","45.3202","8.41857","130","79.8","22081","19728","41809","2396","2103","4499","24477","21831","46308","9.7"
"2163","Villarboit","PIEMONTE","Vercelli","VC","13030","45.4377","8.33511","162","25.5","215","225","440","13","12","25","228","237","465","5.4"
"2164","Villata","PIEMONTE","Vercelli","VC","13010","45.3847","8.4337","136","14.4","751","788","1539","48","31","79","799","819","1618","4.9"
"2166","Vocca","PIEMONTE","Vercelli","VC","13020","45.8327","8.19772","506","20.0","81","80","161","1","0","1","82","80","162","0.6"
"3001","Agrate Conturbia","PIEMONTE","Novara","NO","28010","45.6766","8.55274","337","14.5","729","738","1467","45","42","87","774","780","1554","5.6"
"3002","Ameno","PIEMONTE","Novara","NO","28010","45.7876","8.43569","517","10.0","428","401","829","26","19","45","454","420","874","5.1"
"3006","Armeno","PIEMONTE","Novara","NO","28011","45.8225","8.43967","523","31.6","1089","994","2083","67","51","118","1156","1045","2201","5.4"
"3008","Arona","PIEMONTE","Novara","NO","28041","45.7586","8.55818","212","14.9","6883","5975","12858","773","564","1337","7656","6539","14195","9.4"
"3012","Barengo","PIEMONTE","Novara","NO","28010","45.5747","8.511","225","19.4","418","409","827","15","10","25","433","419","852","2.9"
"3016","Bellinzago Novarese","PIEMONTE","Novara","NO","28043","45.5686","8.64226","192","39.3","4381","4435","8816","314","245","559","4695","4680","9375","6.0"
"3018","Biandrate","PIEMONTE","Novara","NO","28061","45.4483","8.46445","160","12.7","547","526","1073","53","74","127","600","600","1200","10.6"
"3019","Boca","PIEMONTE","Novara","NO","28010","45.6791","8.40852","389","9.6","564","577","1141","47","39","86","611","616","1227","7.0"
"3021","Bogogno","PIEMONTE","Novara","NO","28010","45.6637","8.53745","278","8.4","609","601","1210","61","54","115","670","655","1325","8.7"
"3022","Bolzano Novarese","PIEMONTE","Novara","NO","28010","45.7628","8.44539","400","3.3","555","568","1123","26","27","53","581","595","1176","4.5"
"3023","Borgolavezzaro","PIEMONTE","Novara","NO","28071","45.3184","8.69955","118","21.2","1015","971","1986","61","36","97","1076","1007","2083","4.7"
"3024","Borgomanero","PIEMONTE","Novara","NO","28021","45.6989","8.46245","307","32.3","10096","9157","19253","1056","857","1913","11152","10014","21166","9.0"
"3025","Borgo Ticino","PIEMONTE","Novara","NO","28040","45.6855","8.60479","299","13.3","2193","2209","4402","256","271","527","2449","2480","4929","10.7"
"3026","Briga Novarese","PIEMONTE","Novara","NO","28010","45.7374","8.45038","345","4.7","1499","1429","2928","73","49","122","1572","1478","3050","4.0"
"3027","Briona","PIEMONTE","Novara","NO","28072","45.5412","8.48156","205","24.7","591","517","1108","68","58","126","659","575","1234","10.2"
"3030","Caltignaga","PIEMONTE","Novara","NO","28010","45.5184","8.58998","178","22.3","1254","1253","2507","49","29","78","1303","1282","2585","3.0"
"3032","Cameri","PIEMONTE","Novara","NO","28062","45.5049","8.66337","161","39.6","5181","4995","10176","324","270","594","5505","5265","10770","5.5"
"3036","Carpignano Sesia","PIEMONTE","Novara","NO","28064","45.5329","8.41645","204","14.7","1245","1141","2386","116","76","192","1361","1217","2578","7.4"
"3037","Casalbeltrame","PIEMONTE","Novara","NO","28060","45.4375","8.4678","151","15.9","508","498","1006","35","35","70","543","533","1076","6.5"
"3039","Casaleggio Novara","PIEMONTE","Novara","NO","28060","45.485","8.49309","170","10.5","458","445","903","19","8","27","477","453","930","2.9"
"3040","Casalino","PIEMONTE","Novara","NO","28060","45.3575","8.52669","131","39.6","757","755","1512","28","15","43","785","770","1555","2.8"
"3041","Casalvolone","PIEMONTE","Novara","NO","28060","45.3995","8.46462","141","17.4","422","394","816","29","22","51","451","416","867","5.9"
"3042","Castellazzo Novarese","PIEMONTE","Novara","NO","28060","45.5138","8.4876","182","10.8","152","142","294","13","16","29","165","158","323","9.0"
"3043","Castelletto sopra Ticino","PIEMONTE","Novara","NO","28053","45.7131","8.64457","226","14.6","4677","4353","9030","503","472","975","5180","4825","10005","9.7"
"3044","Cavaglietto","PIEMONTE","Novara","NO","28010","45.6042","8.50423","233","6.5","182","196","378","13","16","29","195","212","407","7.1"
"3045","Cavaglio d'Agogna","PIEMONTE","Novara","NO","28010","45.6103","8.48322","243","9.9","600","572","1172","40","68","108","640","640","1280","8.4"
"3047","Cavallirio","PIEMONTE","Novara","NO","28010","45.6627","8.39507","367","8.1","598","593","1191","27","31","58","625","624","1249","4.6"
"3049","Cerano","PIEMONTE","Novara","NO","28065","45.4103","8.77646","127","32.1","3129","2931","6060","334","334","668","3463","3265","6728","9.9"
"3051","Colazza","PIEMONTE","Novara","NO","28010","45.7882","8.49602","517","3.2","216","205","421","24","18","42","240","223","463","9.1"
"3052","Comignago","PIEMONTE","Novara","NO","28060","45.7145","8.56411","268","4.4","582","587","1169","34","20","54","616","607","1223","4.4"
"3055","Cressa","PIEMONTE","Novara","NO","28012","45.65","8.5104","267","7.1","778","709","1487","38","46","84","816","755","1571","5.3"
"3058","Cureggio","PIEMONTE","Novara","NO","28060","45.6763","8.46317","289","8.4","1282","1228","2510","58","36","94","1340","1264","2604","3.6"
"3060","Divignano","PIEMONTE","Novara","NO","28010","45.6581","8.60354","337","5.4","671","664","1335","57","53","110","728","717","1445","7.6"
"3062","Dormelletto","PIEMONTE","Novara","NO","28040","45.7364","8.56675","235","7.0","1235","1106","2341","157","145","302","1392","1251","2643","11.4"
"3065","Fara Novarese","PIEMONTE","Novara","NO","28073","45.5536","8.46048","210","9.3","994","953","1947","86","80","166","1080","1033","2113","7.9"
"3066","Fontaneto d'Agogna","PIEMONTE","Novara","NO","28010","45.6403","8.48377","260","21.2","1322","1226","2548","70","113","183","1392","1339","2731","6.7"
"3068","Galliate","PIEMONTE","Novara","NO","28066","45.4784","8.69329","153","29.5","7179","6700","13879","588","541","1129","7767","7241","15008","7.5"
"3069","Garbagna Novarese","PIEMONTE","Novara","NO","28070","45.3849","8.66065","132","10.1","658","649","1307","31","12","43","689","661","1350","3.2"
"3070","Gargallo","PIEMONTE","Novara","NO","28010","45.7238","8.42677","397","3.7","885","884","1769","55","45","100","940","929","1869","5.4"
"3071","Gattico","PIEMONTE","Novara","NO","28013","45.7099","8.51893","383","16.1","1637","1531","3168","110","83","193","1747","1614","3361","5.7"
"3073","Ghemme","PIEMONTE","Novara","NO","28074","45.5959","8.42286","241","20.6","1727","1640","3367","158","92","250","1885","1732","3617","6.9"
"3076","Gozzano","PIEMONTE","Novara","NO","28024","45.7468","8.44195","367","12.5","2574","2467","5041","262","298","560","2836","2765","5601","10.0"
"3077","Granozzo con Monticello","PIEMONTE","Novara","NO","28060","45.3605","8.57402","129","19.5","720","685","1405","15","12","27","735","697","1432","1.9"
"3079","Grignasco","PIEMONTE","Novara","NO","28075","45.6813","8.34653","322","14.6","2283","2186","4469","127","95","222","2410","2281","4691","4.7"
"3082","Invorio","PIEMONTE","Novara","NO","28045","45.7554","8.48709","366","17.4","2111","2054","4165","162","137","299","2273","2191","4464","6.7"
"3083","Landiona","PIEMONTE","Novara","NO","28064","45.4962","8.42288","184","7.2","302","271","573","7","10","17","309","281","590","2.9"
"3084","Lesa","PIEMONTE","Novara","NO","28040","45.8241","8.56017","198","12.5","1098","969","2067","96","73","169","1194","1042","2236","7.6"
"3088","Maggiora","PIEMONTE","Novara","NO","28014","45.6862","8.41927","397","10.7","813","807","1620","66","56","122","879","863","1742","7.0"
"3090","Mandello Vitta","PIEMONTE","Novara","NO","28060","45.495","8.45934","175","5.9","126","114","240","4","0","4","130","114","244","1.6"
"3091","Marano Ticino","PIEMONTE","Novara","NO","28040","45.6316","8.63184","258","7.9","720","738","1458","56","40","96","776","778","1554","6.2"
"3093","Massino Visconti","PIEMONTE","Novara","NO","28040","45.8206","8.5373","465","6.7","538","521","1059","27","25","52","565","546","1111","4.7"
"3095","Meina","PIEMONTE","Novara","NO","28046","45.7878","8.53191","214","7.8","1226","1124","2350","118","88","206","1344","1212","2556","8.1"
"3097","Mezzomerico","PIEMONTE","Novara","NO","28040","45.6208","8.60382","266","7.6","550","563","1113","34","29","63","584","592","1176","5.4"
"3098","Miasino","PIEMONTE","Novara","NO","28010","45.8","8.4285","479","5.4","450","382","832","31","24","55","481","406","887","6.2"
"3100","Momo","PIEMONTE","Novara","NO","28015","45.5738","8.55592","213","23.6","1313","1199","2512","74","87","161","1387","1286","2673","6.0"
"3103","Nebbiuno","PIEMONTE","Novara","NO","28010","45.7951","8.52222","430","8.3","881","866","1747","64","45","109","945","911","1856","5.9"
"3104","Nibbiola","PIEMONTE","Novara","NO","28070","45.3733","8.66104","133","11.3","405","379","784","4","4","8","409","383","792","1.0"
"3106","Novara","PIEMONTE","Novara","NO","28100","45.4469","8.62216","162","103.0","47414","42762","90176","6082","5694","11776","53496","48456","101952","11.6"
"3108","Oleggio","PIEMONTE","Novara","NO","28047","45.5952","8.63501","233","37.8","6480","6231","12711","514","425","939","6994","6656","13650","6.9"
"3109","Oleggio Castello","PIEMONTE","Novara","NO","28040","45.7494","8.52691","293","5.9","960","931","1891","36","41","77","996","972","1968","3.9"
"3112","Orta San Giulio","PIEMONTE","Novara","NO","28016","45.7967","8.41622","294","6.8","636","461","1097","49","17","66","685","478","1163","5.7"
"3114","Paruzzaro","PIEMONTE","Novara","NO","28040","45.7493","8.51635","334","5.4","986","992","1978","67","43","110","1053","1035","2088","5.3"
"3115","Pella","PIEMONTE","Novara","NO","28010","45.8016","8.3857","305","8.2","507","445","952","45","41","86","552","486","1038","8.3"
"3116","Pettenasco","PIEMONTE","Novara","NO","28028","45.8175","8.40598","300","7.2","649","665","1314","30","24","54","679","689","1368","3.9"
"3119","Pisano","PIEMONTE","Novara","NO","28010","45.7941","8.51307","390","2.8","373","334","707","33","30","63","406","364","770","8.2"
"3120","Pogno","PIEMONTE","Novara","NO","28076","45.7527","8.38077","420","10.0","703","693","1396","66","76","142","769","769","1538","9.2"
"3121","Pombia","PIEMONTE","Novara","NO","28050","45.6489","8.63311","286","12.0","1014","1002","2016","91","75","166","1105","1077","2182","7.6"
"3122","Prato Sesia","PIEMONTE","Novara","NO","28077","45.6472","8.37325","275","12.3","956","953","1909","49","35","84","1005","988","1993","4.2"
"3129","Recetto","PIEMONTE","Novara","NO","28060","45.4568","8.43587","162","8.8","408","405","813","40","63","103","448","468","916","11.2"
"3130","Romagnano Sesia","PIEMONTE","Novara","NO","28078","45.6347","8.38162","268","18.0","1982","1800","3782","145","122","267","2127","1922","4049","6.6"
"3131","Romentino","PIEMONTE","Novara","NO","28068","45.46","8.7214","146","17.7","2460","2400","4860","288","231","519","2748","2631","5379","9.6"
"3133","San Maurizio d'Opaglio","PIEMONTE","Novara","NO","28017","45.7723","8.39735","370","8.3","1482","1421","2903","93","108","201","1575","1529","3104","6.5"
"3134","San Nazzaro Sesia","PIEMONTE","Novara","NO","28060","45.4385","8.42392","153","11.5","329","349","678","7","5","12","336","354","690","1.7"
"3135","San Pietro Mosezzo","PIEMONTE","Novara","NO","28060","45.4541","8.54288","155","34.8","949","916","1865","69","62","131","1018","978","1996","6.6"
"3138","Sillavengo","PIEMONTE","Novara","NO","28064","45.5197","8.44054","192","9.5","277","295","572","12","11","23","289","306","595","3.9"
"3139","Sizzano","PIEMONTE","Novara","NO","28070","45.5748","8.43908","225","10.5","704","683","1387","32","27","59","736","710","1446","4.1"
"3140","Soriso","PIEMONTE","Novara","NO","28010","45.7398","8.41068","452","6.3","348","316","664","50","67","117","398","383","781","15.0"
"3141","Sozzago","PIEMONTE","Novara","NO","28060","45.397","8.72316","129","12.9","529","493","1022","20","13","33","549","506","1055","3.1"
"3143","Suno","PIEMONTE","Novara","NO","28019","45.6308","8.54078","251","21.3","1362","1289","2651","98","59","157","1460","1348","2808","5.6"
"3144","Terdobbiate","PIEMONTE","Novara","NO","28070","45.3752","8.69562","128","8.5","239","234","473","17","10","27","256","244","500","5.4"
"3146","Tornaco","PIEMONTE","Novara","NO","28070","45.3563","8.71824","122","13.3","446","403","849","17","10","27","463","413","876","3.1"
"3149","Trecate","PIEMONTE","Novara","NO","28069","45.4327","8.73801","136","38.4","8710","8310","17020","1426","1410","2836","10136","9720","19856","14.3"
"3153","Vaprio d'Agogna","PIEMONTE","Novara","NO","28010","45.6026","8.55521","232","10.1","492","474","966","32","17","49","524","491","1015","4.8"
"3154","Varallo Pombia","PIEMONTE","Novara","NO","28040","45.6654","8.63338","300","13.6","2379","2267","4646","174","184","358","2553","2451","5004","7.2"
"3157","Veruno","PIEMONTE","Novara","NO","28010","45.6925","8.52988","357","10.2","885","856","1741","59","44","103","944","900","1844","5.6"
"3158","Vespolate","PIEMONTE","Novara","NO","28079","45.348","8.66926","123","17.8","1002","973","1975","53","39","92","1055","1012","2067","4.5"
"3159","Vicolungo","PIEMONTE","Novara","NO","28060","45.479","8.46161","170","13.4","415","397","812","39","32","71","454","429","883","8.0"
"3164","Vinzaglio","PIEMONTE","Novara","NO","28060","45.3228","8.51943","124","15.5","259","310","569","10","9","19","269","319","588","3.2"
"4001","Acceglio","PIEMONTE","Cuneo","CN","12021","44.4755","6.99177","1.200","151.9","83","82","165","6","3","9","89","85","174","5.2"
"4002","Aisone","PIEMONTE","Cuneo","CN","12010","44.3135","7.22276","834","36.9","124","123","247","5","2","7","129","125","254","2.8"
"4003","Alba","PIEMONTE","Cuneo","CN","12051","44.7009","8.03569","172","54.0","14482","13014","27496","1814","1494","3308","16296","14508","30804","10.7"
"4004","Albaretto della Torre","PIEMONTE","Cuneo","CN","12050","44.5955","8.06519","672","4.3","112","118","230","14","15","29","126","133","259","11.2"
"4005","Alto","PIEMONTE","Cuneo","CN","12070","44.1087","8.00557","652","7.6","51","54","105","8","8","16","59","62","121","13.2"
"4006","Argentera","PIEMONTE","Cuneo","CN","12010","44.3962","6.93746","1.684","76.5","36","43","79","0","0","0","36","43","79","0.0"
"4007","Arguello","PIEMONTE","Cuneo","CN","12050","44.5827","8.11032","661","5.0","93","99","192","6","3","9","99","102","201","4.5"
"4008","Bagnasco","PIEMONTE","Cuneo","CN","12071","44.3074","8.04629","483","31.1","465","408","873","68","97","165","533","505","1038","15.9"
"4009","Bagnolo Piemonte","PIEMONTE","Cuneo","CN","12031","44.7617","7.31489","365","62.9","2674","2614","5288","388","364","752","3062","2978","6040","12.5"
"4010","Baldissero d'Alba","PIEMONTE","Cuneo","CN","12040","44.7584","7.91155","380","15.0","501","526","1027","31","28","59","532","554","1086","5.4"
"4011","Barbaresco","PIEMONTE","Cuneo","CN","12050","44.7233","8.08356","274","7.6","282","302","584","49","44","93","331","346","677","13.7"
"4012","Barge","PIEMONTE","Cuneo","CN","12032","44.726","7.32605","372","82.4","3354","3268","6622","586","653","1239","3940","3921","7861","15.8"
"4013","Barolo","PIEMONTE","Cuneo","CN","12060","44.6088","7.9403","301","5.6","333","299","632","44","29","73","377","328","705","10.4"
"4014","Bastia Mondovì","PIEMONTE","Cuneo","CN","12060","44.4426","7.89325","294","12.0","289","274","563","41","42","83","330","316","646","12.8"
"4015","Battifollo","PIEMONTE","Cuneo","CN","12070","44.3211","8.00682","846","11.1","109","115","224","7","3","10","116","118","234","4.3"
"4016","Beinette","PIEMONTE","Cuneo","CN","12081","44.3647","7.64597","491","17.4","1499","1437","2936","134","130","264","1633","1567","3200","8.3"
"4017","Bellino","PIEMONTE","Cuneo","CN","12020","44.5846","7.03485","1.572","62.2","61","73","134","1","0","1","62","73","135","0.7"
"4018","Belvedere Langhe","PIEMONTE","Cuneo","CN","12060","44.4899","7.97681","639","5.0","169","154","323","19","28","47","188","182","370","12.7"
"4019","Bene Vagienna","PIEMONTE","Cuneo","CN","12041","44.5426","7.82692","349","49.0","1623","1645","3268","204","199","403","1827","1844","3671","11.0"
"4020","Benevello","PIEMONTE","Cuneo","CN","12050","44.63","8.10634","671","5.4","201","216","417","19","21","40","220","237","457","8.8"
"4021","Bergolo","PIEMONTE","Cuneo","CN","12074","44.5473","8.18166","616","3.0","30","29","59","5","3","8","35","32","67","11.9"
"4022","Bernezzo","PIEMONTE","Cuneo","CN","12010","44.384","7.43879","575","25.8","1856","1733","3589","109","87","196","1965","1820","3785","5.2"
"4023","Bonvicino","PIEMONTE","Cuneo","CN","12060","44.5029","8.01786","502","7.2","41","54","95","7","5","12","48","59","107","11.2"
"4024","Borgomale","PIEMONTE","Cuneo","CN","12050","44.6212","8.13211","471","8.5","181","191","372","9","8","17","190","199","389","4.4"
"4025","Borgo San Dalmazzo","PIEMONTE","Cuneo","CN","12011","44.33","7.48415","636","22.3","5925","5603","11528","452","392","844","6377","5995","12372","6.8"
"4026","Bosia","PIEMONTE","Cuneo","CN","12050","44.6009","8.14753","484","5.6","81","77","158","12","11","23","93","88","181","12.7"
"4027","Bossolasco","PIEMONTE","Cuneo","CN","12060","44.5275","8.05062","757","14.4","308","296","604","40","32","72","348","328","676","10.7"
"4028","Boves","PIEMONTE","Cuneo","CN","12012","44.328","7.55157","590","51.1","4607","4563","9170","299","256","555","4906","4819","9725","5.7"
"4029","Bra","PIEMONTE","Cuneo","CN","12042","44.6923","7.85512","290","59.6","13275","12297","25572","1720","1643","3363","14995","13940","28935","11.6"
"4030","Briaglia","PIEMONTE","Cuneo","CN","12080","44.3956","7.87634","546","6.2","149","162","311","7","6","13","156","168","324","4.0"
"4031","Briga Alta","PIEMONTE","Cuneo","CN","18025","44.0813","7.74964","1.310","53.5","19","29","48","0","0","0","19","29","48","0.0"
"4032","Brondello","PIEMONTE","Cuneo","CN","12030","44.5999","7.40582","467","9.9","124","145","269","8","10","18","132","155","287","6.3"
"4033","Brossasco","PIEMONTE","Cuneo","CN","12020","44.5699","7.36278","606","28.2","497","545","1042","32","35","67","529","580","1109","6.0"
"4034","Busca","PIEMONTE","Cuneo","CN","12022","44.5169","7.47796","500","65.8","4685","4606","9291","391","367","758","5076","4973","10049","7.5"
"4035","Camerana","PIEMONTE","Cuneo","CN","12072","44.423","8.14367","525","24.0","311","319","630","19","6","25","330","325","655","3.8"
"4036","Camo","PIEMONTE","Cuneo","CN","12050","44.6947","8.19312","471","3.6","94","102","196","2","2","4","96","104","200","2.0"
"4037","Canale","PIEMONTE","Cuneo","CN","12043","44.798","7.9996","193","18.0","2410","2341","4751","432","453","885","2842","2794","5636","15.7"
"4038","Canosio","PIEMONTE","Cuneo","CN","12020","44.4562","7.08319","1.225","48.6","32","48","80","2","0","2","34","48","82","2.4"
"4039","Caprauna","PIEMONTE","Cuneo","CN","12070","44.1177","7.95384","954","11.0","55","62","117","2","1","3","57","63","120","2.5"
"4040","Caraglio","PIEMONTE","Cuneo","CN","12023","44.4192","7.43267","575","41.5","3129","3093","6222","269","264","533","3398","3357","6755","7.9"
"4041","Caramagna Piemonte","PIEMONTE","Cuneo","CN","12030","44.7803","7.73885","257","26.3","1392","1377","2769","121","142","263","1513","1519","3032","8.7"
"4042","Cardè","PIEMONTE","Cuneo","CN","12030","44.745","7.47779","258","19.3","570","535","1105","16","13","29","586","548","1134","2.6"
"4043","Carrù","PIEMONTE","Cuneo","CN","12061","44.4797","7.87352","364","26.0","2047","1923","3970","234","224","458","2281","2147","4428","10.3"
"4044","Cartignano","PIEMONTE","Cuneo","CN","12020","44.4775","7.28799","690","6.5","83","90","173","1","4","5","84","94","178","2.8"
"4045","Casalgrasso","PIEMONTE","Cuneo","CN","12030","44.8178","7.62665","240","17.7","677","667","1344","53","51","104","730","718","1448","7.2"
"4046","Castagnito","PIEMONTE","Cuneo","CN","12050","44.7542","8.0317","350","7.1","891","865","1756","173","184","357","1064","1049","2113","16.9"
"4047","Casteldelfino","PIEMONTE","Cuneo","CN","12020","44.59","7.06889","1.296","33.2","83","85","168","6","5","11","89","90","179","6.1"
"4048","Castellar","PIEMONTE","Cuneo","CN","12030","44.2962","7.57551","402","3.8","132","146","278","4","2","6","136","148","284","2.1"
"4049","Castelletto Stura","PIEMONTE","Cuneo","CN","12040","44.4439","7.63944","447","16.6","601","651","1252","52","47","99","653","698","1351","7.3"
"4050","Castelletto Uzzone","PIEMONTE","Cuneo","CN","12070","44.4933","8.18987","425","15.1","150","181","331","20","14","34","170","195","365","9.3"
"4051","Castellinaldo","PIEMONTE","Cuneo","CN","12050","44.7721","8.03206","285","7.9","399","418","817","39","41","80","438","459","897","8.9"
"4052","Castellino Tanaro","PIEMONTE","Cuneo","CN","12060","44.4276","7.97993","613","11.6","161","164","325","7","5","12","168","169","337","3.6"
"4053","Castelmagno","PIEMONTE","Cuneo","CN","12020","44.4096","7.21356","1.141","49.5","28","53","81","1","0","1","29","53","82","1.2"
"4054","Castelnuovo di Ceva","PIEMONTE","Cuneo","CN","12070","44.354","8.1281","743","6.2","67","58","125","9","5","14","76","63","139","10.1"
"4055","Castiglione Falletto","PIEMONTE","Cuneo","CN","12060","44.6214","7.97662","350","4.7","319","335","654","26","28","54","345","363","708","7.6"
"4056","Castiglione Tinella","PIEMONTE","Cuneo","CN","12053","44.7262","8.19306","408","11.6","403","377","780","42","49","91","445","426","871","10.4"
"4057","Castino","PIEMONTE","Cuneo","CN","12050","44.6291","8.16117","540","15.5","210","227","437","32","31","63","242","258","500","12.6"
"4058","Cavallerleone","PIEMONTE","Cuneo","CN","12030","44.7384","7.66071","270","16.5","275","301","576","34","42","76","309","343","652","11.7"
"4059","Cavallermaggiore","PIEMONTE","Cuneo","CN","12030","44.7129","7.68937","285","51.6","2445","2433","4878","298","296","594","2743","2729","5472","10.9"
"4060","Celle di Macra","PIEMONTE","Cuneo","CN","12020","44.4816","7.17836","1.270","31.3","39","54","93","0","0","0","39","54","93","0.0"
"4061","Centallo","PIEMONTE","Cuneo","CN","12044","44.5009","7.58449","426","42.8","3037","3074","6111","337","369","706","3374","3443","6817","10.4"
"4062","Ceresole Alba","PIEMONTE","Cuneo","CN","12040","44.8","7.81837","301","37.1","951","1034","1985","77","53","130","1028","1087","2115","6.1"
"4063","Cerretto Langhe","PIEMONTE","Cuneo","CN","12050","44.5792","8.0738","687","10.1","190","222","412","23","20","43","213","242","455","9.5"
"4064","Cervasca","PIEMONTE","Cuneo","CN","12010","44.3801","7.47289","578","18.3","2257","2346","4603","113","88","201","2370","2434","4804","4.2"
"4065","Cervere","PIEMONTE","Cuneo","CN","12040","44.6277","7.77971","304","18.9","998","1005","2003","89","70","159","1087","1075","2162","7.4"
"4066","Ceva","PIEMONTE","Cuneo","CN","12073","44.3863","8.02908","376","43.0","2507","2401","4908","429","420","849","2936","2821","5757","14.7"
"4067","Cherasco","PIEMONTE","Cuneo","CN","12062","44.6472","7.85819","288","81.2","4056","3894","7950","366","336","702","4422","4230","8652","8.1"
"4068","Chiusa di Pesio","PIEMONTE","Cuneo","CN","12013","44.3241","7.67305","575","94.1","1729","1674","3403","172","155","327","1901","1829","3730","8.8"
"4069","Cigliè","PIEMONTE","Cuneo","CN","12060","44.4364","7.92694","549","6.0","96","94","190","2","4","6","98","98","196","3.1"
"4070","Cissone","PIEMONTE","Cuneo","CN","12050","44.5637","8.03052","661","5.8","31","41","72","7","3","10","38","44","82","12.2"
"4071","Clavesana","PIEMONTE","Cuneo","CN","12060","44.4837","7.91019","300","17.2","405","412","817","45","38","83","450","450","900","9.2"
"4072","Corneliano d'Alba","PIEMONTE","Cuneo","CN","12040","44.736","7.95844","204","10.3","967","881","1848","83","106","189","1050","987","2037","9.3"
"4073","Cortemilia","PIEMONTE","Cuneo","CN","12074","44.5808","8.19221","247","24.7","1066","1054","2120","154","114","268","1220","1168","2388","11.2"
"4074","Cossano Belbo","PIEMONTE","Cuneo","CN","12054","44.6653","8.19575","244","20.8","449","448","897","65","68","133","514","516","1030","12.9"
"4075","Costigliole Saluzzo","PIEMONTE","Cuneo","CN","12024","44.5648","7.48478","460","15.3","1405","1417","2822","257","265","522","1662","1682","3344","15.6"
"4076","Cravanzana","PIEMONTE","Cuneo","CN","12050","44.5668","8.11747","585","8.2","184","173","357","28","23","51","212","196","408","12.5"
"4077","Crissolo","PIEMONTE","Cuneo","CN","12030","44.6982","7.1597","1.318","49.0","72","99","171","1","0","1","73","99","172","0.6"
"4078","Cuneo","PIEMONTE","Cuneo","CN","12100","44.3845","7.54267","534","119.9","26273","23845","50118","2568","2327","4895","28841","26172","55013","8.9"
"4079","Demonte","PIEMONTE","Cuneo","CN","12014","44.3148","7.29447","780","127.3","989","988","1977","46","36","82","1035","1024","2059","4.0"
"4080","Diano d'Alba","PIEMONTE","Cuneo","CN","12055","44.65","8.02713","496","17.8","1593","1636","3229","120","102","222","1713","1738","3451","6.4"
"4081","Dogliani","PIEMONTE","Cuneo","CN","12063","44.532","7.94975","295","35.9","2068","2038","4106","349","350","699","2417","2388","4805","14.5"
"4082","Dronero","PIEMONTE","Cuneo","CN","12025","44.4658","7.36567","622","58.9","3284","2974","6258","440","507","947","3724","3481","7205","13.1"
"4083","Elva","PIEMONTE","Cuneo","CN","12020","44.5411","7.09343","1.637","26.4","43","50","93","0","1","1","43","51","94","1.1"
"4084","Entracque","PIEMONTE","Cuneo","CN","12010","44.244","7.39641","894","159.9","380","412","792","11","4","15","391","416","807","1.9"
"4085","Envie","PIEMONTE","Cuneo","CN","12030","44.6785","7.37229","327","25.1","923","942","1865","96","96","192","1019","1038","2057","9.3"
"4086","Farigliano","PIEMONTE","Cuneo","CN","12060","44.5116","7.91757","263","16.4","768","765","1533","102","112","214","870","877","1747","12.2"
"4087","Faule","PIEMONTE","Cuneo","CN","12030","44.8071","7.58142","246","6.9","237","234","471","15","10","25","252","244","496","5.0"
"4088","Feisoglio","PIEMONTE","Cuneo","CN","12050","44.542","8.10507","706","7.4","165","167","332","7","5","12","172","172","344","3.5"
"4089","Fossano","PIEMONTE","Cuneo","CN","12045","44.5525","7.72179","375","130.7","11288","11010","22298","1141","1271","2412","12429","12281","24710","9.8"
"4090","Frabosa Soprana","PIEMONTE","Cuneo","CN","12082","44.2852","7.80772","891","48.0","382","394","776","25","14","39","407","408","815","4.8"
"4091","Frabosa Sottana","PIEMONTE","Cuneo","CN","12083","44.3035","7.80028","641","37.6","648","737","1385","60","49","109","708","786","1494","7.3"
"4092","Frassino","PIEMONTE","Cuneo","CN","12020","44.5705","7.27438","750","16.8","125","144","269","17","4","21","142","148","290","7.2"
"4093","Gaiola","PIEMONTE","Cuneo","CN","12010","44.3335","7.40647","692","5.0","278","311","589","8","3","11","286","314","600","1.8"
"4094","Gambasca","PIEMONTE","Cuneo","CN","12030","44.6302","7.34431","478","5.8","186","199","385","11","12","23","197","211","408","5.6"
"4095","Garessio","PIEMONTE","Cuneo","CN","12075","44.2038","8.01423","621","131.2","1591","1487","3078","154","130","284","1745","1617","3362","8.4"
"4096","Genola","PIEMONTE","Cuneo","CN","12040","44.5876","7.66183","345","13.7","1196","1171","2367","116","113","229","1312","1284","2596","8.8"
"4097","Gorzegno","PIEMONTE","Cuneo","CN","12070","44.5126","8.13559","319","13.8","148","156","304","11","7","18","159","163","322","5.6"
"4098","Gottasecca","PIEMONTE","Cuneo","CN","12070","44.4593","8.16748","710","13.5","81","89","170","3","1","4","84","90","174","2.3"
"4099","Govone","PIEMONTE","Cuneo","CN","12040","44.8045","8.09753","301","18.8","1043","967","2010","80","67","147","1123","1034","2157","6.8"
"4100","Grinzane Cavour","PIEMONTE","Cuneo","CN","12060","44.6534","7.99223","195","3.7","850","820","1670","140","128","268","990","948","1938","13.8"
"4101","Guarene","PIEMONTE","Cuneo","CN","12050","44.7377","8.03077","360","13.4","1566","1553","3119","184","132","316","1750","1685","3435","9.2"
"4102","Igliano","PIEMONTE","Cuneo","CN","12060","44.4438","8.01333","532","3.4","34","39","73","7","4","11","41","43","84","13.1"
"4103","Isasca","PIEMONTE","Cuneo","CN","12020","44.5866","7.38188","660","5.3","32","46","78","0","0","0","32","46","78","0.0"
"4104","Lagnasco","PIEMONTE","Cuneo","CN","12030","44.626","7.55615","353","17.8","613","636","1249","70","86","156","683","722","1405","11.1"
"4105","La Morra","PIEMONTE","Cuneo","CN","12064","44.6389","7.9338","513","24.3","1207","1238","2445","138","135","273","1345","1373","2718","10.0"
"4106","Lequio Berria","PIEMONTE","Cuneo","CN","12050","44.6039","8.09758","715","11.9","216","251","467","16","11","27","232","262","494","5.5"
"4107","Lequio Tanaro","PIEMONTE","Cuneo","CN","12060","44.5606","7.8828","328","12.1","353","364","717","52","50","102","405","414","819","12.5"
"4108","Lesegno","PIEMONTE","Cuneo","CN","12076","44.4016","7.97042","422","14.4","401","371","772","47","35","82","448","406","854","9.6"
"4109","Levice","PIEMONTE","Cuneo","CN","12070","44.5374","8.15601","547","15.4","103","106","209","18","19","37","121","125","246","15.0"
"4110","Limone Piemonte","PIEMONTE","Cuneo","CN","12015","44.205","7.57506","1.009","71.2","718","728","1446","29","15","44","747","743","1490","3.0"
"4111","Lisio","PIEMONTE","Cuneo","CN","12070","44.3064","7.97901","575","8.7","98","105","203","9","2","11","107","107","214","5.1"
"4112","Macra","PIEMONTE","Cuneo","CN","12020","44.5003","7.17955","875","24.5","22","26","48","4","0","4","26","26","52","7.7"
"4113","Magliano Alfieri","PIEMONTE","Cuneo","CN","12050","44.7657","8.07059","328","9.5","948","899","1847","85","94","179","1033","993","2026","8.8"
"4114","Magliano Alpi","PIEMONTE","Cuneo","CN","12060","44.4657","7.82301","403","32.6","1017","1029","2046","90","95","185","1107","1124","2231","8.3"
"4115","Mango","PIEMONTE","Cuneo","CN","12056","44.687","8.14837","521","19.9","593","576","1169","79","86","165","672","662","1334","12.4"
"4116","Manta","PIEMONTE","Cuneo","CN","12030","44.6169","7.48532","404","11.8","1759","1660","3419","177","139","316","1936","1799","3735","8.5"
"4117","Marene","PIEMONTE","Cuneo","CN","12030","44.6628","7.72856","310","29.0","1422","1396","2818","122","115","237","1544","1511","3055","7.8"
"4118","Margarita","PIEMONTE","Cuneo","CN","12040","44.4027","7.6854","448","11.5","659","671","1330","54","48","102","713","719","1432","7.1"
"4119","Marmora","PIEMONTE","Cuneo","CN","12020","44.4585","7.09295","1.225","41.1","35","34","69","1","4","5","36","38","74","6.8"
"4120","Marsaglia","PIEMONTE","Cuneo","CN","12060","44.4529","7.98273","607","13.0","121","124","245","11","5","16","132","129","261","6.1"
"4121","Martiniana Po","PIEMONTE","Cuneo","CN","12030","44.6282","7.36014","460","13.0","339","367","706","39","36","75","378","403","781","9.6"
"4122","Melle","PIEMONTE","Cuneo","CN","12020","44.5608","7.31879","683","27.9","162","156","318","6","2","8","168","158","326","2.5"
"4123","Moiola","PIEMONTE","Cuneo","CN","12010","44.3199","7.38978","689","15.0","114","126","240","7","5","12","121","131","252","4.8"
"4124","Mombarcaro","PIEMONTE","Cuneo","CN","12070","44.4675","8.08858","896","20.4","132","122","254","11","9","20","143","131","274","7.3"
"4125","Mombasiglio","PIEMONTE","Cuneo","CN","12070","44.3632","7.97038","454","17.2","321","280","601","11","4","15","332","284","616","2.4"
"4126","Monastero di Vasco","PIEMONTE","Cuneo","CN","12080","44.3397","7.82197","508","17.5","670","607","1277","22","20","42","692","627","1319","3.2"
"4127","Monasterolo Casotto","PIEMONTE","Cuneo","CN","12080","44.3164","7.94294","726","7.7","50","51","101","0","0","0","50","51","101","0.0"
"4128","Monasterolo di Savigliano","PIEMONTE","Cuneo","CN","12030","44.6894","7.61961","291","15.1","648","606","1254","53","50","103","701","656","1357","7.6"
"4129","Monchiero","PIEMONTE","Cuneo","CN","12060","44.5691","7.91766","235","5.0","230","241","471","40","47","87","270","288","558","15.6"
"4130","Mondovì","PIEMONTE","Cuneo","CN","12084","44.3917","7.81878","395","87.3","10179","9527","19706","1321","1226","2547","11500","10753","22253","11.4"
"4131","Monesiglio","PIEMONTE","Cuneo","CN","12077","44.4647","8.11956","372","12.8","334","305","639","37","36","73","371","341","712","10.3"
"4132","Monforte d'Alba","PIEMONTE","Cuneo","CN","12065","44.5829","7.96789","480","25.7","870","845","1715","165","162","327","1035","1007","2042","16.0"
"4133","Montà","PIEMONTE","Cuneo","CN","12046","44.8195","7.95303","316","26.7","2162","2015","4177","266","272","538","2428","2287","4715","11.4"
"4134","Montaldo di Mondovì","PIEMONTE","Cuneo","CN","12080","44.3211","7.8674","800","23.7","278","257","535","22","14","36","300","271","571","6.3"
"4135","Montaldo Roero","PIEMONTE","Cuneo","CN","12040","44.767","7.92768","378","12.0","407","426","833","22","17","39","429","443","872","4.5"
"4136","Montanera","PIEMONTE","Cuneo","CN","12040","44.4611","7.6657","427","11.1","333","333","666","29","38","67","362","371","733","9.1"
"4137","Montelupo Albese","PIEMONTE","Cuneo","CN","12050","44.623","8.04667","564","6.4","236","228","464","38","29","67","274","257","531","12.6"
"4138","Montemale di Cuneo","PIEMONTE","Cuneo","CN","12025","44.4371","7.37624","931","11.6","105","110","215","1","2","3","106","112","218","1.4"
"4139","Monterosso Grana","PIEMONTE","Cuneo","CN","12020","44.4084","7.32229","720","42.2","233","240","473","32","31","63","265","271","536","11.8"
"4140","Monteu Roero","PIEMONTE","Cuneo","CN","12040","44.7793","7.9385","395","24.5","785","774","1559","60","48","108","845","822","1667","6.5"
"4141","Montezemolo","PIEMONTE","Cuneo","CN","12070","44.3775","8.14144","741","6.8","117","138","255","7","8","15","124","146","270","5.6"
"4142","Monticello d'Alba","PIEMONTE","Cuneo","CN","12066","44.718","7.94174","320","10.1","1036","978","2014","96","106","202","1132","1084","2216","9.1"
"4143","Moretta","PIEMONTE","Cuneo","CN","12033","44.7633","7.53187","262","24.2","2025","1893","3918","169","150","319","2194","2043","4237","7.5"
"4144","Morozzo","PIEMONTE","Cuneo","CN","12040","44.4232","7.70994","431","22.0","926","977","1903","105","107","212","1031","1084","2115","10.0"
"4145","Murazzano","PIEMONTE","Cuneo","CN","12060","44.4751","8.02139","739","27.7","367","360","727","60","53","113","427","413","840","13.5"
"4146","Murello","PIEMONTE","Cuneo","CN","12030","44.7537","7.60073","260","17.2","451","464","915","27","20","47","478","484","962","4.9"
"4147","Narzole","PIEMONTE","Cuneo","CN","12068","44.5942","7.87095","325","26.4","1496","1473","2969","281","282","563","1777","1755","3532","15.9"
"4148","Neive","PIEMONTE","Cuneo","CN","12052","44.7238","8.11913","308","21.2","1469","1351","2820","264","257","521","1733","1608","3341","15.6"
"4149","Neviglie","PIEMONTE","Cuneo","CN","12050","44.6975","8.11747","461","8.1","208","194","402","11","12","23","219","206","425","5.4"
"4150","Niella Belbo","PIEMONTE","Cuneo","CN","12050","44.513","8.07968","785","11.5","186","189","375","16","10","26","202","199","401","6.5"
"4151","Niella Tanaro","PIEMONTE","Cuneo","CN","12060","44.413","7.92369","371","15.6","483","469","952","43","40","83","526","509","1035","8.0"
"4152","Novello","PIEMONTE","Cuneo","CN","12060","44.5869","7.92592","471","11.6","455","468","923","50","50","100","505","518","1023","9.8"
"4153","Nucetto","PIEMONTE","Cuneo","CN","12070","44.3419","8.06096","450","7.6","200","210","410","11","11","22","211","221","432","5.1"
"4154","Oncino","PIEMONTE","Cuneo","CN","12030","44.6773","7.19012","1.220","47.5","31","47","78","1","3","4","32","50","82","4.9"
"4155","Ormea","PIEMONTE","Cuneo","CN","12078","44.1483","7.91049","736","124.2","805","808","1613","56","54","110","861","862","1723","6.4"
"4156","Ostana","PIEMONTE","Cuneo","CN","12030","44.6926","7.18885","1.250","17.0","33","46","79","1","1","2","34","47","81","2.5"
"4157","Paesana","PIEMONTE","Cuneo","CN","12034","44.6847","7.27436","614","58.1","1412","1328","2740","67","61","128","1479","1389","2868","4.5"
"4158","Pagno","PIEMONTE","Cuneo","CN","12030","44.6125","7.42741","362","8.4","280","286","566","5","1","6","285","287","572","1.0"
"4159","Pamparato","PIEMONTE","Cuneo","CN","12087","44.2745","7.91024","816","35.1","157","170","327","1","1","2","158","171","329","0.6"
"4160","Paroldo","PIEMONTE","Cuneo","CN","12070","44.4326","8.07164","640","12.6","103","107","210","11","7","18","114","114","228","7.9"
"4161","Perletto","PIEMONTE","Cuneo","CN","12070","44.5998","8.21216","446","10.6","132","150","282","14","9","23","146","159","305","7.5"
"4162","Perlo","PIEMONTE","Cuneo","CN","12070","44.3313","8.0833","697","11.6","57","67","124","2","0","2","59","67","126","1.6"
"4163","Peveragno","PIEMONTE","Cuneo","CN","12016","44.3289","7.61735","570","68.4","2617","2591","5208","146","127","273","2763","2718","5481","5.0"
"4164","Pezzolo Valle Uzzone","PIEMONTE","Cuneo","CN","12070","44.539","8.19287","321","27.5","160","158","318","22","14","36","182","172","354","10.2"
"4165","Pianfei","PIEMONTE","Cuneo","CN","12080","44.3697","7.70837","503","15.1","1021","1047","2068","90","64","154","1111","1111","2222","6.9"
"4166","Piasco","PIEMONTE","Cuneo","CN","12026","44.5686","7.45845","480","10.6","1342","1286","2628","99","94","193","1441","1380","2821","6.8"
"4167","Pietraporzio","PIEMONTE","Cuneo","CN","12010","44.3432","7.03586","1.246","54.5","35","47","82","6","3","9","41","50","91","9.9"
"4168","Piobesi d'Alba","PIEMONTE","Cuneo","CN","12040","44.7332","7.98029","194","4.0","575","578","1153","47","48","95","622","626","1248","7.6"
"4169","Piozzo","PIEMONTE","Cuneo","CN","12060","44.5127","7.89107","327","14.3","501","453","954","27","26","53","528","479","1007","5.3"
"4170","Pocapaglia","PIEMONTE","Cuneo","CN","12060","44.7138","7.88754","381","17.4","1615","1607","3222","68","40","108","1683","1647","3330","3.2"
"4171","Polonghera","PIEMONTE","Cuneo","CN","12030","44.8025","7.59841","245","10.4","550","532","1082","59","52","111","609","584","1193","9.3"
"4172","Pontechianale","PIEMONTE","Cuneo","CN","12020","44.6213","7.03181","1.614","95.7","86","90","176","5","1","6","91","91","182","3.3"
"4173","Pradleves","PIEMONTE","Cuneo","CN","12027","44.4179","7.2819","822","19.3","127","133","260","5","7","12","132","140","272","4.4"
"4174","Prazzo","PIEMONTE","Cuneo","CN","12028","44.4832","7.05712","1.030","52.3","88","80","168","4","3","7","92","83","175","4.0"
"4175","Priero","PIEMONTE","Cuneo","CN","12070","44.3754","8.09581","475","20.2","210","202","412","37","38","75","247","240","487","15.4"
"4176","Priocca","PIEMONTE","Cuneo","CN","12040","44.7856","8.06256","253","9.1","971","931","1902","61","38","99","1032","969","2001","4.9"
"4177","Priola","PIEMONTE","Cuneo","CN","12070","44.2404","8.02068","537","27.1","344","351","695","14","10","24","358","361","719","3.3"
"4178","Prunetto","PIEMONTE","Cuneo","CN","12077","44.4884","8.14365","750","14.5","221","227","448","17","6","23","238","233","471","4.9"
"4179","Racconigi","PIEMONTE","Cuneo","CN","12035","44.7683","7.67591","260","48.0","4653","4468","9121","442","465","907","5095","4933","10028","9.0"
"4180","Revello","PIEMONTE","Cuneo","CN","12036","44.6568","7.39202","351","53.5","1965","1955","3920","146","137","283","2111","2092","4203","6.7"
"4181","Rifreddo","PIEMONTE","Cuneo","CN","12030","44.6497","7.34926","433","6.8","483","499","982","45","45","90","528","544","1072","8.4"
"4182","Rittana","PIEMONTE","Cuneo","CN","12010","44.3577","7.38529","750","11.4","70","61","131","2","2","4","72","63","135","3.0"
"4183","Roaschia","PIEMONTE","Cuneo","CN","12010","44.2703","7.45421","820","23.9","59","75","134","4","0","4","63","75","138","2.9"
"4184","Roascio","PIEMONTE","Cuneo","CN","12073","44.4171","8.02267","458","6.5","37","44","81","1","1","2","38","45","83","2.4"
"4185","Robilante","PIEMONTE","Cuneo","CN","12017","44.2917","7.51559","686","24.9","1108","1108","2216","113","95","208","1221","1203","2424","8.6"
"4186","Roburent","PIEMONTE","Cuneo","CN","12080","44.3031","7.88909","788","29.9","246","254","500","8","5","13","254","259","513","2.5"
"4187","Roccabruna","PIEMONTE","Cuneo","CN","12020","44.4913","7.32643","700","24.1","757","729","1486","57","46","103","814","775","1589","6.5"
"4188","Rocca Cigliè","PIEMONTE","Cuneo","CN","12060","44.4378","7.95384","604","7.3","78","67","145","6","3","9","84","70","154","5.8"
"4189","Rocca de' Baldi","PIEMONTE","Cuneo","CN","12047","44.4235","7.76168","414","26.3","772","789","1561","62","75","137","834","864","1698","8.1"
"4190","Roccaforte Mondovì","PIEMONTE","Cuneo","CN","12088","44.3176","7.74449","574","84.9","954","1023","1977","81","90","171","1035","1113","2148","8.0"
"4191","Roccasparvera","PIEMONTE","Cuneo","CN","12010","44.3391","7.44053","674","11.0","347","366","713","20","4","24","367","370","737","3.3"
"4192","Roccavione","PIEMONTE","Cuneo","CN","12018","44.3153","7.48225","646","19.6","1332","1307","2639","119","118","237","1451","1425","2876","8.2"
"4193","Rocchetta Belbo","PIEMONTE","Cuneo","CN","12050","44.6379","8.17751","273","4.6","83","89","172","5","4","9","88","93","181","5.0"
"4194","Roddi","PIEMONTE","Cuneo","CN","12060","44.6791","7.97297","284","9.4","755","747","1502","23","21","44","778","768","1546","2.8"
"4195","Roddino","PIEMONTE","Cuneo","CN","12050","44.5755","8.01586","610","10.4","163","182","345","16","16","32","179","198","377","8.5"
"4196","Rodello","PIEMONTE","Cuneo","CN","12050","44.6299","8.05769","537","8.8","445","458","903","58","43","101","503","501","1004","10.1"
